{
"type": "FeatureCollection",
"name": "tram_stops",
"crs": { "type": "name", "properties": { "name": "urn:ogc:def:crs:OGC:1.3:CRS84" } },
"features": [
{ "type": "Feature", "properties": { "STOP_ID": "18197", "STOP_NAME": "124A-Casino\/MCEC\/Clarendon St (Southbank)", "LATITUDE": -37.823591, "LONGITUDE": 144.95631, "TICKETZONE": "1", "ROUTEUSSP": "109,12,96" }, "geometry": { "type": "Point", "coordinates": [ 144.95631, -37.823591 ] } },
{ "type": "Feature", "properties": { "STOP_ID": "18199", "STOP_NAME": "5-Bourke St\/William St (Melbourne City)", "LATITUDE": -37.815874, "LONGITUDE": 144.95825, "TICKETZONE": "1", "ROUTEUSSP": "58" }, "geometry": { "type": "Point", "coordinates": [ 144.95825, -37.815874 ] } },
{ "type": "Feature", "properties": { "STOP_ID": "18200", "STOP_NAME": "6-Lonsdale St\/William St (Melbourne City)", "LATITUDE": -37.813904, "LONGITUDE": 144.957373, "TICKETZONE": "1", "ROUTEUSSP": "58" }, "geometry": { "type": "Point", "coordinates": [ 144.957373, -37.813904 ] } },
{ "type": "Feature", "properties": { "STOP_ID": "18201", "STOP_NAME": "7-Flagstaff Railway Station\/William St (Melbourne City)", "LATITUDE": -37.812014, "LONGITUDE": 144.956505, "TICKETZONE": "1", "ROUTEUSSP": "58" }, "geometry": { "type": "Point", "coordinates": [ 144.956505, -37.812014 ] } },
{ "type": "Feature", "properties": { "STOP_ID": "18202", "STOP_NAME": "8-Franklin St\/William St (Melbourne City)", "LATITUDE": -37.809743, "LONGITUDE": 144.955454, "TICKETZONE": "1", "ROUTEUSSP": "58" }, "geometry": { "type": "Point", "coordinates": [ 144.955454, -37.809743 ] } },
{ "type": "Feature", "properties": { "STOP_ID": "18203", "STOP_NAME": "10-Victoria St\/Peel St (West Melbourne)", "LATITUDE": -37.805391, "LONGITUDE": 144.956029, "TICKETZONE": "1", "ROUTEUSSP": "58" }, "geometry": { "type": "Point", "coordinates": [ 144.956029, -37.805391 ] } },
{ "type": "Feature", "properties": { "STOP_ID": "18204", "STOP_NAME": "10-Victoria St\/Peel St (West Melbourne)", "LATITUDE": -37.805698, "LONGITUDE": 144.956077, "TICKETZONE": "1", "ROUTEUSSP": "58" }, "geometry": { "type": "Point", "coordinates": [ 144.956077, -37.805698 ] } },
{ "type": "Feature", "properties": { "STOP_ID": "18205", "STOP_NAME": "9-Queen Victoria Market\/49 Peel St (North Melbourne)", "LATITUDE": -37.8071, "LONGITUDE": 144.955857, "TICKETZONE": "1", "ROUTEUSSP": "58" }, "geometry": { "type": "Point", "coordinates": [ 144.955857, -37.8071 ] } },
{ "type": "Feature", "properties": { "STOP_ID": "18206", "STOP_NAME": "9-Queen Victoria Market\/49 Peel St (North Melbourne)", "LATITUDE": -37.807, "LONGITUDE": 144.955768, "TICKETZONE": "1", "ROUTEUSSP": "58" }, "geometry": { "type": "Point", "coordinates": [ 144.955768, -37.807 ] } },
{ "type": "Feature", "properties": { "STOP_ID": "18207", "STOP_NAME": "8-Franklin St\/Peel St (Melbourne City)", "LATITUDE": -37.809428, "LONGITUDE": 144.955474, "TICKETZONE": "1", "ROUTEUSSP": "58" }, "geometry": { "type": "Point", "coordinates": [ 144.955474, -37.809428 ] } },
{ "type": "Feature", "properties": { "STOP_ID": "18208", "STOP_NAME": "7-Flagstaff Railway Station\/William St (Melbourne City)", "LATITUDE": -37.811562, "LONGITUDE": 144.956404, "TICKETZONE": "1", "ROUTEUSSP": "58" }, "geometry": { "type": "Point", "coordinates": [ 144.956404, -37.811562 ] } },
{ "type": "Feature", "properties": { "STOP_ID": "18209", "STOP_NAME": "6-Lonsdale St\/William St (Melbourne City)", "LATITUDE": -37.813506, "LONGITUDE": 144.957293, "TICKETZONE": "1", "ROUTEUSSP": "58" }, "geometry": { "type": "Point", "coordinates": [ 144.957293, -37.813506 ] } },
{ "type": "Feature", "properties": { "STOP_ID": "18210", "STOP_NAME": "5-Bourke St\/William St (Melbourne City)", "LATITUDE": -37.81544, "LONGITUDE": 144.95816, "TICKETZONE": "1", "ROUTEUSSP": "58" }, "geometry": { "type": "Point", "coordinates": [ 144.95816, -37.81544 ] } },
{ "type": "Feature", "properties": { "STOP_ID": "18211", "STOP_NAME": "4-Collins St\/William St (Melbourne City)", "LATITUDE": -37.817457, "LONGITUDE": 144.959092, "TICKETZONE": "1", "ROUTEUSSP": "58" }, "geometry": { "type": "Point", "coordinates": [ 144.959092, -37.817457 ] } },
{ "type": "Feature", "properties": { "STOP_ID": "18213", "STOP_NAME": "2-Market St\/Flinders Lane (Melbourne City)", "LATITUDE": -37.81829, "LONGITUDE": 144.960365, "TICKETZONE": "1", "ROUTEUSSP": "58" }, "geometry": { "type": "Point", "coordinates": [ 144.960365, -37.81829 ] } },
{ "type": "Feature", "properties": { "STOP_ID": "18214", "STOP_NAME": "1-Flinders St\/Queens Bridge St (Melbourne City)", "LATITUDE": -37.819513, "LONGITUDE": 144.96124, "TICKETZONE": "1", "ROUTEUSSP": "58" }, "geometry": { "type": "Point", "coordinates": [ 144.96124, -37.819513 ] } },
{ "type": "Feature", "properties": { "STOP_ID": "18215", "STOP_NAME": "115-Casino\/Southbank\/Queens Bridge St (Southbank)", "LATITUDE": -37.821821, "LONGITUDE": 144.961313, "TICKETZONE": "1", "ROUTEUSSP": "58" }, "geometry": { "type": "Point", "coordinates": [ 144.961313, -37.821821 ] } },
{ "type": "Feature", "properties": { "STOP_ID": "18217", "STOP_NAME": "117-York St\/Kings Way (South Melbourne)", "LATITUDE": -37.82961, "LONGITUDE": 144.964075, "TICKETZONE": "1", "ROUTEUSSP": "58" }, "geometry": { "type": "Point", "coordinates": [ 144.964075, -37.82961 ] } },
{ "type": "Feature", "properties": { "STOP_ID": "18218", "STOP_NAME": "118-Sturt St\/Kings Way (Southbank)", "LATITUDE": -37.830536, "LONGITUDE": 144.965004, "TICKETZONE": "1", "ROUTEUSSP": "58" }, "geometry": { "type": "Point", "coordinates": [ 144.965004, -37.830536 ] } },
{ "type": "Feature", "properties": { "STOP_ID": "18219", "STOP_NAME": "119-Park St\/Kings Way (South Melbourne)", "LATITUDE": -37.83324, "LONGITUDE": 144.967645, "TICKETZONE": "1", "ROUTEUSSP": "58" }, "geometry": { "type": "Point", "coordinates": [ 144.967645, -37.83324 ] } },
{ "type": "Feature", "properties": { "STOP_ID": "18221", "STOP_NAME": "119-Kings Way\/Park St (South Melbourne)", "LATITUDE": -37.833357, "LONGITUDE": 144.968165, "TICKETZONE": "1", "ROUTEUSSP": "58" }, "geometry": { "type": "Point", "coordinates": [ 144.968165, -37.833357 ] } },
{ "type": "Feature", "properties": { "STOP_ID": "18222", "STOP_NAME": "118-Sturt St\/Kings Way (Southbank)", "LATITUDE": -37.831074, "LONGITUDE": 144.965375, "TICKETZONE": "1", "ROUTEUSSP": "58" }, "geometry": { "type": "Point", "coordinates": [ 144.965375, -37.831074 ] } },
{ "type": "Feature", "properties": { "STOP_ID": "18223", "STOP_NAME": "117-York St\/Kings Way (South Melbourne)", "LATITUDE": -37.829571, "LONGITUDE": 144.963906, "TICKETZONE": "1", "ROUTEUSSP": "58" }, "geometry": { "type": "Point", "coordinates": [ 144.963906, -37.829571 ] } },
{ "type": "Feature", "properties": { "STOP_ID": "18224", "STOP_NAME": "20-Kings Way\/Sturt St (Southbank)", "LATITUDE": -37.830136, "LONGITUDE": 144.96531, "TICKETZONE": "1", "ROUTEUSSP": "1" }, "geometry": { "type": "Point", "coordinates": [ 144.96531, -37.830136 ] } },
{ "type": "Feature", "properties": { "STOP_ID": "18225", "STOP_NAME": "19-Miles St\/Sturt St (Southbank)", "LATITUDE": -37.828431, "LONGITUDE": 144.965755, "TICKETZONE": "1", "ROUTEUSSP": "1" }, "geometry": { "type": "Point", "coordinates": [ 144.965755, -37.828431 ] } },
{ "type": "Feature", "properties": { "STOP_ID": "18226", "STOP_NAME": "18-Grant St\/Sturt St (Southbank)", "LATITUDE": -37.825779, "LONGITUDE": 144.966634, "TICKETZONE": "1", "ROUTEUSSP": "1" }, "geometry": { "type": "Point", "coordinates": [ 144.966634, -37.825779 ] } },
{ "type": "Feature", "properties": { "STOP_ID": "18227", "STOP_NAME": "17-Southbank Bvd\/Sturt St (Southbank)", "LATITUDE": -37.823771, "LONGITUDE": 144.967235, "TICKETZONE": "1", "ROUTEUSSP": "1" }, "geometry": { "type": "Point", "coordinates": [ 144.967235, -37.823771 ] } },
{ "type": "Feature", "properties": { "STOP_ID": "18229", "STOP_NAME": "17-Sturt St\/Southbank Bvd (Southbank)", "LATITUDE": -37.823617, "LONGITUDE": 144.967739, "TICKETZONE": "1", "ROUTEUSSP": "1" }, "geometry": { "type": "Point", "coordinates": [ 144.967739, -37.823617 ] } },
{ "type": "Feature", "properties": { "STOP_ID": "18230", "STOP_NAME": "18-Grant St\/Sturt St (Southbank)", "LATITUDE": -37.825781, "LONGITUDE": 144.966725, "TICKETZONE": "1", "ROUTEUSSP": "1" }, "geometry": { "type": "Point", "coordinates": [ 144.966725, -37.825781 ] } },
{ "type": "Feature", "properties": { "STOP_ID": "18231", "STOP_NAME": "19-Miles St\/Sturt St (Southbank)", "LATITUDE": -37.828184, "LONGITUDE": 144.966057, "TICKETZONE": "1", "ROUTEUSSP": "1" }, "geometry": { "type": "Point", "coordinates": [ 144.966057, -37.828184 ] } },
{ "type": "Feature", "properties": { "STOP_ID": "18232", "STOP_NAME": "20-Kings Way\/Sturt St (Southbank)", "LATITUDE": -37.830138, "LONGITUDE": 144.965412, "TICKETZONE": "1", "ROUTEUSSP": "1" }, "geometry": { "type": "Point", "coordinates": [ 144.965412, -37.830138 ] } },
{ "type": "Feature", "properties": { "STOP_ID": "18233", "STOP_NAME": "116-City Rd\/Kings Way (Southbank)", "LATITUDE": -37.82626, "LONGITUDE": 144.960577, "TICKETZONE": "1", "ROUTEUSSP": "58" }, "geometry": { "type": "Point", "coordinates": [ 144.960577, -37.82626 ] } },
{ "type": "Feature", "properties": { "STOP_ID": "18341", "STOP_NAME": "24-Grattan St\/Church St (Hawthorn)", "LATITUDE": -37.81788, "LONGITUDE": 145.018653, "TICKETZONE": "1", "ROUTEUSSP": "48" }, "geometry": { "type": "Point", "coordinates": [ 145.018653, -37.81788 ] } },
{ "type": "Feature", "properties": { "STOP_ID": "18342", "STOP_NAME": "25-Brook St\/Church St (Hawthorn)", "LATITUDE": -37.815921, "LONGITUDE": 145.020602, "TICKETZONE": "1", "ROUTEUSSP": "48" }, "geometry": { "type": "Point", "coordinates": [ 145.020602, -37.815921 ] } },
{ "type": "Feature", "properties": { "STOP_ID": "18343", "STOP_NAME": "26-Barkers Rd\/Church St (Hawthorn)", "LATITUDE": -37.813271, "LONGITUDE": 145.023275, "TICKETZONE": "1", "ROUTEUSSP": "48" }, "geometry": { "type": "Point", "coordinates": [ 145.023275, -37.813271 ] } },
{ "type": "Feature", "properties": { "STOP_ID": "18347", "STOP_NAME": "34-Pakington St\/High St (Kew)", "LATITUDE": -37.805617, "LONGITUDE": 145.033837, "TICKETZONE": "1", "ROUTEUSSP": "48" }, "geometry": { "type": "Point", "coordinates": [ 145.033837, -37.805617 ] } },
{ "type": "Feature", "properties": { "STOP_ID": "18348", "STOP_NAME": "35-Cobden St\/High St (Kew)", "LATITUDE": -37.805091, "LONGITUDE": 145.035305, "TICKETZONE": "1", "ROUTEUSSP": "48" }, "geometry": { "type": "Point", "coordinates": [ 145.035305, -37.805091 ] } },
{ "type": "Feature", "properties": { "STOP_ID": "18349", "STOP_NAME": "36-Parkhill Rd\/High St (Kew)", "LATITUDE": -37.803489, "LONGITUDE": 145.039755, "TICKETZONE": "1", "ROUTEUSSP": "48" }, "geometry": { "type": "Point", "coordinates": [ 145.039755, -37.803489 ] } },
{ "type": "Feature", "properties": { "STOP_ID": "18350", "STOP_NAME": "37-Kew Cemetery\/High St (Kew)", "LATITUDE": -37.802473, "LONGITUDE": 145.042564, "TICKETZONE": "1", "ROUTEUSSP": "48" }, "geometry": { "type": "Point", "coordinates": [ 145.042564, -37.802473 ] } },
{ "type": "Feature", "properties": { "STOP_ID": "18351", "STOP_NAME": "38-Victoria Park\/High St (Kew)", "LATITUDE": -37.801259, "LONGITUDE": 145.045981, "TICKETZONE": "1", "ROUTEUSSP": "48" }, "geometry": { "type": "Point", "coordinates": [ 145.045981, -37.801259 ] } },
{ "type": "Feature", "properties": { "STOP_ID": "18352", "STOP_NAME": "39-Harp Rd\/High St (Kew)", "LATITUDE": -37.79943, "LONGITUDE": 145.050345, "TICKETZONE": "1", "ROUTEUSSP": "48" }, "geometry": { "type": "Point", "coordinates": [ 145.050345, -37.79943 ] } },
{ "type": "Feature", "properties": { "STOP_ID": "18353", "STOP_NAME": "40-Harp Village\/High St (Kew East)", "LATITUDE": -37.798628, "LONGITUDE": 145.052024, "TICKETZONE": "1", "ROUTEUSSP": "48" }, "geometry": { "type": "Point", "coordinates": [ 145.052024, -37.798628 ] } },
{ "type": "Feature", "properties": { "STOP_ID": "18354", "STOP_NAME": "41-Clyde St\/High St (Kew East)", "LATITUDE": -37.797439, "LONGITUDE": 145.054792, "TICKETZONE": "1", "ROUTEUSSP": "48" }, "geometry": { "type": "Point", "coordinates": [ 145.054792, -37.797439 ] } },
{ "type": "Feature", "properties": { "STOP_ID": "18355", "STOP_NAME": "42-Irymple Ave\/High St (Kew East)", "LATITUDE": -37.796397, "LONGITUDE": 145.057159, "TICKETZONE": "1", "ROUTEUSSP": "48" }, "geometry": { "type": "Point", "coordinates": [ 145.057159, -37.796397 ] } },
{ "type": "Feature", "properties": { "STOP_ID": "18356", "STOP_NAME": "43-Kew High School\/High St (Kew East)", "LATITUDE": -37.794633, "LONGITUDE": 145.061157, "TICKETZONE": "1", "ROUTEUSSP": "48" }, "geometry": { "type": "Point", "coordinates": [ 145.061157, -37.794633 ] } },
{ "type": "Feature", "properties": { "STOP_ID": "18357", "STOP_NAME": "44-Burke Rd\/High St (Kew)", "LATITUDE": -37.79353, "LONGITUDE": 145.063662, "TICKETZONE": "1", "ROUTEUSSP": "48" }, "geometry": { "type": "Point", "coordinates": [ 145.063662, -37.79353 ] } },
{ "type": "Feature", "properties": { "STOP_ID": "18358", "STOP_NAME": "45-Burke Rd\/Doncaster Rd (Balwyn North)", "LATITUDE": -37.793168, "LONGITUDE": 145.065216, "TICKETZONE": "1", "ROUTEUSSP": "48" }, "geometry": { "type": "Point", "coordinates": [ 145.065216, -37.793168 ] } },
{ "type": "Feature", "properties": { "STOP_ID": "18359", "STOP_NAME": "46-Wattle Ave\/Doncaster Rd (Balwyn North)", "LATITUDE": -37.792854, "LONGITUDE": 145.067473, "TICKETZONE": "1", "ROUTEUSSP": "48" }, "geometry": { "type": "Point", "coordinates": [ 145.067473, -37.792854 ] } },
{ "type": "Feature", "properties": { "STOP_ID": "18360", "STOP_NAME": "47-North Balwyn Shopping Centre\/Doncaster Rd (Balwyn North)", "LATITUDE": -37.792712, "LONGITUDE": 145.07144, "TICKETZONE": "1", "ROUTEUSSP": "48" }, "geometry": { "type": "Point", "coordinates": [ 145.07144, -37.792712 ] } },
{ "type": "Feature", "properties": { "STOP_ID": "18361", "STOP_NAME": "48-Sunburst Ave\/Doncaster Rd (Balwyn North)", "LATITUDE": -37.793217, "LONGITUDE": 145.074266, "TICKETZONE": "1", "ROUTEUSSP": "48" }, "geometry": { "type": "Point", "coordinates": [ 145.074266, -37.793217 ] } },
{ "type": "Feature", "properties": { "STOP_ID": "18362", "STOP_NAME": "49-Cityview Rd\/Doncaster Rd (Balwyn North)", "LATITUDE": -37.793756, "LONGITUDE": 145.077466, "TICKETZONE": "1", "ROUTEUSSP": "48" }, "geometry": { "type": "Point", "coordinates": [ 145.077466, -37.793756 ] } },
{ "type": "Feature", "properties": { "STOP_ID": "18363", "STOP_NAME": "50-Hill Rd\/Doncaster Rd (Balwyn North)", "LATITUDE": -37.794259, "LONGITUDE": 145.081189, "TICKETZONE": "1", "ROUTEUSSP": "48" }, "geometry": { "type": "Point", "coordinates": [ 145.081189, -37.794259 ] } },
{ "type": "Feature", "properties": { "STOP_ID": "18364", "STOP_NAME": "36-St Kilda Primary School\/Brighton Rd (Elwood)", "LATITUDE": -37.87012, "LONGITUDE": 144.988345, "TICKETZONE": "1", "ROUTEUSSP": "67" }, "geometry": { "type": "Point", "coordinates": [ 144.988345, -37.87012 ] } },
{ "type": "Feature", "properties": { "STOP_ID": "18365", "STOP_NAME": "38-Wimbledon Ave\/Brighton Rd (Elwood)", "LATITUDE": -37.872881, "LONGITUDE": 144.990078, "TICKETZONE": "1", "ROUTEUSSP": "67" }, "geometry": { "type": "Point", "coordinates": [ 144.990078, -37.872881 ] } },
{ "type": "Feature", "properties": { "STOP_ID": "18367", "STOP_NAME": "39-Glen Eira Rd\/Brighton Rd (Elwood)", "LATITUDE": -37.87596, "LONGITUDE": 144.992018, "TICKETZONE": "1", "ROUTEUSSP": "67" }, "geometry": { "type": "Point", "coordinates": [ 144.992018, -37.87596 ] } },
{ "type": "Feature", "properties": { "STOP_ID": "18368", "STOP_NAME": "40-Scott St\/Brighton Rd (Elwood)", "LATITUDE": -37.878947, "LONGITUDE": 144.993892, "TICKETZONE": "1", "ROUTEUSSP": "67" }, "geometry": { "type": "Point", "coordinates": [ 144.993892, -37.878947 ] } },
{ "type": "Feature", "properties": { "STOP_ID": "18369", "STOP_NAME": "41-Coleridge St\/Brighton Rd (Elwood)", "LATITUDE": -37.880842, "LONGITUDE": 144.99508, "TICKETZONE": "1", "ROUTEUSSP": "67" }, "geometry": { "type": "Point", "coordinates": [ 144.99508, -37.880842 ] } },
{ "type": "Feature", "properties": { "STOP_ID": "18370", "STOP_NAME": "42-Hotham St\/Brighton Rd (St Kilda East)", "LATITUDE": -37.882864, "LONGITUDE": 144.996344, "TICKETZONE": "1", "ROUTEUSSP": "67" }, "geometry": { "type": "Point", "coordinates": [ 144.996344, -37.882864 ] } },
{ "type": "Feature", "properties": { "STOP_ID": "18371", "STOP_NAME": "43-Brighton Rd\/Glenhuntly Rd (Elsternwick)", "LATITUDE": -37.883904, "LONGITUDE": 144.997578, "TICKETZONE": "1", "ROUTEUSSP": "67" }, "geometry": { "type": "Point", "coordinates": [ 144.997578, -37.883904 ] } },
{ "type": "Feature", "properties": { "STOP_ID": "18372", "STOP_NAME": "44-Elsternwick Railway Station\/Glenhuntly Rd (Elsternwick)", "LATITUDE": -37.884306, "LONGITUDE": 145.000557, "TICKETZONE": "1", "ROUTEUSSP": "67" }, "geometry": { "type": "Point", "coordinates": [ 145.000557, -37.884306 ] } },
{ "type": "Feature", "properties": { "STOP_ID": "18373", "STOP_NAME": "45-Elsternwick Shopping Centre\/Glenhuntly Rd (Elsternwick)", "LATITUDE": -37.884751, "LONGITUDE": 145.003945, "TICKETZONE": "1", "ROUTEUSSP": "67" }, "geometry": { "type": "Point", "coordinates": [ 145.003945, -37.884751 ] } },
{ "type": "Feature", "properties": { "STOP_ID": "18374", "STOP_NAME": "46-Orrong Rd\/Glenhuntly Rd (Elsternwick)", "LATITUDE": -37.885051, "LONGITUDE": 145.006211, "TICKETZONE": "1", "ROUTEUSSP": "67" }, "geometry": { "type": "Point", "coordinates": [ 145.006211, -37.885051 ] } },
{ "type": "Feature", "properties": { "STOP_ID": "18375", "STOP_NAME": "47-Shoobra Rd\/Glenhuntly Rd (Elsternwick)", "LATITUDE": -37.885388, "LONGITUDE": 145.009113, "TICKETZONE": "1", "ROUTEUSSP": "67" }, "geometry": { "type": "Point", "coordinates": [ 145.009113, -37.885388 ] } },
{ "type": "Feature", "properties": { "STOP_ID": "18376", "STOP_NAME": "48-Parkside St\/Glenhuntly Rd (Elsternwick)", "LATITUDE": -37.885756, "LONGITUDE": 145.012241, "TICKETZONE": "1", "ROUTEUSSP": "67" }, "geometry": { "type": "Point", "coordinates": [ 145.012241, -37.885756 ] } },
{ "type": "Feature", "properties": { "STOP_ID": "18392", "STOP_NAME": "49-Kooyong Rd\/Glenhuntly Rd (Elsternwick)", "LATITUDE": -37.886102, "LONGITUDE": 145.015086, "TICKETZONE": "1", "ROUTEUSSP": "67" }, "geometry": { "type": "Point", "coordinates": [ 145.015086, -37.886102 ] } },
{ "type": "Feature", "properties": { "STOP_ID": "18393", "STOP_NAME": "50-Royal Pde\/Glenhuntly Rd (Caulfield)", "LATITUDE": -37.886498, "LONGITUDE": 145.018259, "TICKETZONE": "1", "ROUTEUSSP": "67" }, "geometry": { "type": "Point", "coordinates": [ 145.018259, -37.886498 ] } },
{ "type": "Feature", "properties": { "STOP_ID": "18394", "STOP_NAME": "51-Hawthorn Rd\/Glenhuntly Rd (Caulfield)", "LATITUDE": -37.886978, "LONGITUDE": 145.022181, "TICKETZONE": "1", "ROUTEUSSP": "67" }, "geometry": { "type": "Point", "coordinates": [ 145.022181, -37.886978 ] } },
{ "type": "Feature", "properties": { "STOP_ID": "18395", "STOP_NAME": "52-Jasmine St\/Glenhuntly Rd (Caulfield)", "LATITUDE": -37.887218, "LONGITUDE": 145.024141, "TICKETZONE": "1", "ROUTEUSSP": "67" }, "geometry": { "type": "Point", "coordinates": [ 145.024141, -37.887218 ] } },
{ "type": "Feature", "properties": { "STOP_ID": "18396", "STOP_NAME": "53-Glenhuntly Tram Depot\/Glenhuntly Rd (Caulfield)", "LATITUDE": -37.887611, "LONGITUDE": 145.02711, "TICKETZONE": "1", "ROUTEUSSP": "67" }, "geometry": { "type": "Point", "coordinates": [ 145.02711, -37.887611 ] } },
{ "type": "Feature", "properties": { "STOP_ID": "18397", "STOP_NAME": "54-Bambra Rd\/Glenhuntly Rd (Caulfield)", "LATITUDE": -37.887839, "LONGITUDE": 145.0289, "TICKETZONE": "1", "ROUTEUSSP": "67" }, "geometry": { "type": "Point", "coordinates": [ 145.0289, -37.887839 ] } },
{ "type": "Feature", "properties": { "STOP_ID": "18398", "STOP_NAME": "55-Fallon St\/Glenhuntly Rd (Caulfield)", "LATITUDE": -37.888108, "LONGITUDE": 145.030986, "TICKETZONE": "1", "ROUTEUSSP": "67" }, "geometry": { "type": "Point", "coordinates": [ 145.030986, -37.888108 ] } },
{ "type": "Feature", "properties": { "STOP_ID": "18399", "STOP_NAME": "56-Kean St\/Glenhuntly Rd (Caulfield)", "LATITUDE": -37.888419, "LONGITUDE": 145.033433, "TICKETZONE": "1", "ROUTEUSSP": "67" }, "geometry": { "type": "Point", "coordinates": [ 145.033433, -37.888419 ] } },
{ "type": "Feature", "properties": { "STOP_ID": "18400", "STOP_NAME": "57-Laura St\/Glenhuntly Rd (Caulfield)", "LATITUDE": -37.88867, "LONGITUDE": 145.035485, "TICKETZONE": "1", "ROUTEUSSP": "67" }, "geometry": { "type": "Point", "coordinates": [ 145.035485, -37.88867 ] } },
{ "type": "Feature", "properties": { "STOP_ID": "18401", "STOP_NAME": "58-Booran Rd\/Glenhuntly Rd (Caulfield)", "LATITUDE": -37.888961, "LONGITUDE": 145.037808, "TICKETZONE": "1", "ROUTEUSSP": "67" }, "geometry": { "type": "Point", "coordinates": [ 145.037808, -37.888961 ] } },
{ "type": "Feature", "properties": { "STOP_ID": "18403", "STOP_NAME": "60-Glenhuntly Shops\/Glenhuntly Rd (Glen Huntly)", "LATITUDE": -37.889388, "LONGITUDE": 145.041265, "TICKETZONE": "1", "ROUTEUSSP": "67" }, "geometry": { "type": "Point", "coordinates": [ 145.041265, -37.889388 ] } },
{ "type": "Feature", "properties": { "STOP_ID": "18404", "STOP_NAME": "61-Glenhuntly Railway Station\/Glenhuntly Rd (Glen Huntly)", "LATITUDE": -37.889559, "LONGITUDE": 145.042841, "TICKETZONE": "1", "ROUTEUSSP": "67" }, "geometry": { "type": "Point", "coordinates": [ 145.042841, -37.889559 ] } },
{ "type": "Feature", "properties": { "STOP_ID": "18405", "STOP_NAME": "62-Grange Rd\/Glenhuntly Rd (Glen Huntly)", "LATITUDE": -37.889829, "LONGITUDE": 145.044995, "TICKETZONE": "1", "ROUTEUSSP": "67" }, "geometry": { "type": "Point", "coordinates": [ 145.044995, -37.889829 ] } },
{ "type": "Feature", "properties": { "STOP_ID": "18406", "STOP_NAME": "63-Maroona Rd\/Glenhuntly Rd (Carnegie)", "LATITUDE": -37.890143, "LONGITUDE": 145.047658, "TICKETZONE": "1", "ROUTEUSSP": "67" }, "geometry": { "type": "Point", "coordinates": [ 145.047658, -37.890143 ] } },
{ "type": "Feature", "properties": { "STOP_ID": "18407", "STOP_NAME": "64-Mernda Ave\/Glenhuntly Rd (Carnegie)", "LATITUDE": -37.890424, "LONGITUDE": 145.049903, "TICKETZONE": "1", "ROUTEUSSP": "67" }, "geometry": { "type": "Point", "coordinates": [ 145.049903, -37.890424 ] } },
{ "type": "Feature", "properties": { "STOP_ID": "18408", "STOP_NAME": "65-Mimosa Rd\/Glenhuntly Rd (Carnegie)", "LATITUDE": -37.890714, "LONGITUDE": 145.052192, "TICKETZONE": "1", "ROUTEUSSP": "67" }, "geometry": { "type": "Point", "coordinates": [ 145.052192, -37.890714 ] } },
{ "type": "Feature", "properties": { "STOP_ID": "18409", "STOP_NAME": "66-Glenhuntly Rd\/Truganini Rd (Carnegie)", "LATITUDE": -37.891069, "LONGITUDE": 145.054048, "TICKETZONE": "1", "ROUTEUSSP": "67" }, "geometry": { "type": "Point", "coordinates": [ 145.054048, -37.891069 ] } },
{ "type": "Feature", "properties": { "STOP_ID": "18410", "STOP_NAME": "67-Centre Rd\/Truganini Rd (Carnegie)", "LATITUDE": -37.892697, "LONGITUDE": 145.054369, "TICKETZONE": "1", "ROUTEUSSP": "67" }, "geometry": { "type": "Point", "coordinates": [ 145.054369, -37.892697 ] } },
{ "type": "Feature", "properties": { "STOP_ID": "18411", "STOP_NAME": "68-Carnegie\/Truganini Rd (Carnegie)", "LATITUDE": -37.893948, "LONGITUDE": 145.055928, "TICKETZONE": "1", "ROUTEUSSP": "67" }, "geometry": { "type": "Point", "coordinates": [ 145.055928, -37.893948 ] } },
{ "type": "Feature", "properties": { "STOP_ID": "18412", "STOP_NAME": "68-East Brighton\/Hawthorn Rd (Brighton East)", "LATITUDE": -37.914266, "LONGITUDE": 145.016832, "TICKETZONE": "1", "ROUTEUSSP": "64" }, "geometry": { "type": "Point", "coordinates": [ 145.016832, -37.914266 ] } },
{ "type": "Feature", "properties": { "STOP_ID": "18413", "STOP_NAME": "67-Howell St\/Hawthorn Rd (Brighton East)", "LATITUDE": -37.911094, "LONGITUDE": 145.017395, "TICKETZONE": "1", "ROUTEUSSP": "64" }, "geometry": { "type": "Point", "coordinates": [ 145.017395, -37.911094 ] } },
{ "type": "Feature", "properties": { "STOP_ID": "18414", "STOP_NAME": "66-Union St\/Hawthorn Rd (Brighton East)", "LATITUDE": -37.90873, "LONGITUDE": 145.017765, "TICKETZONE": "1", "ROUTEUSSP": "64" }, "geometry": { "type": "Point", "coordinates": [ 145.017765, -37.90873 ] } },
{ "type": "Feature", "properties": { "STOP_ID": "18415", "STOP_NAME": "65-Davey Ave\/Hawthorn Rd (Brighton East)", "LATITUDE": -37.906574, "LONGITUDE": 145.018141, "TICKETZONE": "1", "ROUTEUSSP": "64" }, "geometry": { "type": "Point", "coordinates": [ 145.018141, -37.906574 ] } },
{ "type": "Feature", "properties": { "STOP_ID": "18416", "STOP_NAME": "64-Taylor St\/Hawthorn Rd (Brighton East)", "LATITUDE": -37.904094, "LONGITUDE": 145.018595, "TICKETZONE": "1", "ROUTEUSSP": "64" }, "geometry": { "type": "Point", "coordinates": [ 145.018595, -37.904094 ] } },
{ "type": "Feature", "properties": { "STOP_ID": "18417", "STOP_NAME": "63-North Rd\/Hawthorn Rd (Brighton East)", "LATITUDE": -37.90157, "LONGITUDE": 145.019072, "TICKETZONE": "1", "ROUTEUSSP": "64" }, "geometry": { "type": "Point", "coordinates": [ 145.019072, -37.90157 ] } },
{ "type": "Feature", "properties": { "STOP_ID": "18418", "STOP_NAME": "62-Gardenvale Rd\/Hawthorn Rd (Caulfield South)", "LATITUDE": -37.899496, "LONGITUDE": 145.019525, "TICKETZONE": "1", "ROUTEUSSP": "64" }, "geometry": { "type": "Point", "coordinates": [ 145.019525, -37.899496 ] } },
{ "type": "Feature", "properties": { "STOP_ID": "18419", "STOP_NAME": "61-Raynes St\/Hawthorn Rd (Caulfield South)", "LATITUDE": -37.896702, "LONGITUDE": 145.020067, "TICKETZONE": "1", "ROUTEUSSP": "64" }, "geometry": { "type": "Point", "coordinates": [ 145.020067, -37.896702 ] } },
{ "type": "Feature", "properties": { "STOP_ID": "18420", "STOP_NAME": "60-Dover St\/Hawthorn Rd (Caulfield South)", "LATITUDE": -37.895058, "LONGITUDE": 145.020372, "TICKETZONE": "1", "ROUTEUSSP": "64" }, "geometry": { "type": "Point", "coordinates": [ 145.020372, -37.895058 ] } },
{ "type": "Feature", "properties": { "STOP_ID": "18421", "STOP_NAME": "59-Princes Park\/Hawthorn Rd (Caulfield South)", "LATITUDE": -37.893127, "LONGITUDE": 145.020731, "TICKETZONE": "1", "ROUTEUSSP": "64" }, "geometry": { "type": "Point", "coordinates": [ 145.020731, -37.893127 ] } },
{ "type": "Feature", "properties": { "STOP_ID": "18422", "STOP_NAME": "58-Sycamore St\/Hawthorn Rd (Caulfield South)", "LATITUDE": -37.889938, "LONGITUDE": 145.021328, "TICKETZONE": "1", "ROUTEUSSP": "64" }, "geometry": { "type": "Point", "coordinates": [ 145.021328, -37.889938 ] } },
{ "type": "Feature", "properties": { "STOP_ID": "18423", "STOP_NAME": "57-Glenhuntly Rd\/Hawthorn Rd (Caulfield South)", "LATITUDE": -37.886991, "LONGITUDE": 145.021885, "TICKETZONE": "1", "ROUTEUSSP": "64" }, "geometry": { "type": "Point", "coordinates": [ 145.021885, -37.886991 ] } },
{ "type": "Feature", "properties": { "STOP_ID": "18424", "STOP_NAME": "56-Lockhart St\/Hawthorn Rd (Caulfield)", "LATITUDE": -37.884584, "LONGITUDE": 145.022347, "TICKETZONE": "1", "ROUTEUSSP": "64" }, "geometry": { "type": "Point", "coordinates": [ 145.022347, -37.884584 ] } },
{ "type": "Feature", "properties": { "STOP_ID": "18425", "STOP_NAME": "55-Sylverly Gr\/Hawthorn Rd (Caulfield)", "LATITUDE": -37.882734, "LONGITUDE": 145.022715, "TICKETZONE": "1", "ROUTEUSSP": "64" }, "geometry": { "type": "Point", "coordinates": [ 145.022715, -37.882734 ] } },
{ "type": "Feature", "properties": { "STOP_ID": "18426", "STOP_NAME": "54-Glen Eira Rd\/Hawthorn Rd (Caulfield)", "LATITUDE": -37.880128, "LONGITUDE": 145.023205, "TICKETZONE": "1", "ROUTEUSSP": "64" }, "geometry": { "type": "Point", "coordinates": [ 145.023205, -37.880128 ] } },
{ "type": "Feature", "properties": { "STOP_ID": "18427", "STOP_NAME": "53-Crotonhurst Ave\/Hawthorn Rd (Caulfield North)", "LATITUDE": -37.877488, "LONGITUDE": 145.023719, "TICKETZONE": "1", "ROUTEUSSP": "64" }, "geometry": { "type": "Point", "coordinates": [ 145.023719, -37.877488 ] } },
{ "type": "Feature", "properties": { "STOP_ID": "18428", "STOP_NAME": "52-Powderham Rd\/Hawthorn Rd (Caulfield North)", "LATITUDE": -37.875251, "LONGITUDE": 145.024154, "TICKETZONE": "1", "ROUTEUSSP": "64" }, "geometry": { "type": "Point", "coordinates": [ 145.024154, -37.875251 ] } },
{ "type": "Feature", "properties": { "STOP_ID": "18429", "STOP_NAME": "51-Balaclava Rd\/Hawthorn Rd (Caulfield North)", "LATITUDE": -37.872888, "LONGITUDE": 145.024604, "TICKETZONE": "1", "ROUTEUSSP": "64" }, "geometry": { "type": "Point", "coordinates": [ 145.024604, -37.872888 ] } },
{ "type": "Feature", "properties": { "STOP_ID": "18430", "STOP_NAME": "50-Inkerman Rd\/Hawthorn Rd (Caulfield North)", "LATITUDE": -37.869699, "LONGITUDE": 145.025189, "TICKETZONE": "1", "ROUTEUSSP": "16,64" }, "geometry": { "type": "Point", "coordinates": [ 145.025189, -37.869699 ] } },
{ "type": "Feature", "properties": { "STOP_ID": "18431", "STOP_NAME": "49-Wanda Rd\/Hawthorn Rd (Caulfield North)", "LATITUDE": -37.867992, "LONGITUDE": 145.025519, "TICKETZONE": "1", "ROUTEUSSP": "16,64" }, "geometry": { "type": "Point", "coordinates": [ 145.025519, -37.867992 ] } },
{ "type": "Feature", "properties": { "STOP_ID": "18432", "STOP_NAME": "48A-Dandenong Rd\/Hawthorn Rd (Caulfield North)", "LATITUDE": -37.865991, "LONGITUDE": 145.025982, "TICKETZONE": "1", "ROUTEUSSP": "16,64" }, "geometry": { "type": "Point", "coordinates": [ 145.025982, -37.865991 ] } },
{ "type": "Feature", "properties": { "STOP_ID": "18437", "STOP_NAME": "44-Bailey Ave\/Dandenong Rd (Armadale)", "LATITUDE": -37.864618, "LONGITUDE": 145.023677, "TICKETZONE": "1", "ROUTEUSSP": "64" }, "geometry": { "type": "Point", "coordinates": [ 145.023677, -37.864618 ] } },
{ "type": "Feature", "properties": { "STOP_ID": "18438", "STOP_NAME": "43-Matlock Ct\/Dandenong Rd (Armadale)", "LATITUDE": -37.863822, "LONGITUDE": 145.021913, "TICKETZONE": "1", "ROUTEUSSP": "64" }, "geometry": { "type": "Point", "coordinates": [ 145.021913, -37.863822 ] } },
{ "type": "Feature", "properties": { "STOP_ID": "18439", "STOP_NAME": "42-Kooyong Rd\/Dandenong Rd (Armadale)", "LATITUDE": -37.862838, "LONGITUDE": 145.019643, "TICKETZONE": "1", "ROUTEUSSP": "64" }, "geometry": { "type": "Point", "coordinates": [ 145.019643, -37.862838 ] } },
{ "type": "Feature", "properties": { "STOP_ID": "18440", "STOP_NAME": "41-Cantala Ave\/Dandenong Rd (Armadale)", "LATITUDE": -37.861966, "LONGITUDE": 145.017643, "TICKETZONE": "1", "ROUTEUSSP": "64" }, "geometry": { "type": "Point", "coordinates": [ 145.017643, -37.861966 ] } },
{ "type": "Feature", "properties": { "STOP_ID": "18441", "STOP_NAME": "40-Wattletree Rd\/Dandenong Rd (Armadale)", "LATITUDE": -37.860806, "LONGITUDE": 145.014537, "TICKETZONE": "1", "ROUTEUSSP": "5,64" }, "geometry": { "type": "Point", "coordinates": [ 145.014537, -37.860806 ] } },
{ "type": "Feature", "properties": { "STOP_ID": "18443", "STOP_NAME": "38-Orrong Rd\/Dandenong Rd (Armadale)", "LATITUDE": -37.860168, "LONGITUDE": 145.010394, "TICKETZONE": "1", "ROUTEUSSP": "5,64" }, "geometry": { "type": "Point", "coordinates": [ 145.010394, -37.860168 ] } },
{ "type": "Feature", "properties": { "STOP_ID": "18444", "STOP_NAME": "37-Lansdowne Rd\/Dandenong Rd (Prahran)", "LATITUDE": -37.859747, "LONGITUDE": 145.007337, "TICKETZONE": "1", "ROUTEUSSP": "5,64" }, "geometry": { "type": "Point", "coordinates": [ 145.007337, -37.859747 ] } },
{ "type": "Feature", "properties": { "STOP_ID": "18445", "STOP_NAME": "36-Alexandra St\/Dandenong Rd (Prahran)", "LATITUDE": -37.859363, "LONGITUDE": 145.004392, "TICKETZONE": "1", "ROUTEUSSP": "5,64" }, "geometry": { "type": "Point", "coordinates": [ 145.004392, -37.859363 ] } },
{ "type": "Feature", "properties": { "STOP_ID": "18446", "STOP_NAME": "35-Hotham St\/Dandenong Rd (Prahran)", "LATITUDE": -37.85893, "LONGITUDE": 145.001187, "TICKETZONE": "1", "ROUTEUSSP": "5,64" }, "geometry": { "type": "Point", "coordinates": [ 145.001187, -37.85893 ] } },
{ "type": "Feature", "properties": { "STOP_ID": "18447", "STOP_NAME": "34-Westbury St\/Dandenong Rd (St Kilda East)", "LATITUDE": -37.858415, "LONGITUDE": 144.99737, "TICKETZONE": "1", "ROUTEUSSP": "5,64" }, "geometry": { "type": "Point", "coordinates": [ 144.99737, -37.858415 ] } },
{ "type": "Feature", "properties": { "STOP_ID": "18448", "STOP_NAME": "33-Hornby St\/Dandenong Rd (Windsor)", "LATITUDE": -37.858207, "LONGITUDE": 144.995762, "TICKETZONE": "1", "ROUTEUSSP": "5,64" }, "geometry": { "type": "Point", "coordinates": [ 144.995762, -37.858207 ] } },
{ "type": "Feature", "properties": { "STOP_ID": "18449", "STOP_NAME": "32-Chapel St\/Dandenong Rd (Windsor)", "LATITUDE": -37.857514, "LONGITUDE": 144.992075, "TICKETZONE": "1", "ROUTEUSSP": "5,64" }, "geometry": { "type": "Point", "coordinates": [ 144.992075, -37.857514 ] } },
{ "type": "Feature", "properties": { "STOP_ID": "18450", "STOP_NAME": "115-Casino East\/Queens Bridge St (Southbank)", "LATITUDE": -37.821711, "LONGITUDE": 144.961225, "TICKETZONE": "1", "ROUTEUSSP": "58" }, "geometry": { "type": "Point", "coordinates": [ 144.961225, -37.821711 ] } },
{ "type": "Feature", "properties": { "STOP_ID": "18451", "STOP_NAME": "64-Darling Rd\/Waverley Rd (Malvern East)", "LATITUDE": -37.877379, "LONGITUDE": 145.058887, "TICKETZONE": "1", "ROUTEUSSP": "3\/3a" }, "geometry": { "type": "Point", "coordinates": [ 145.058887, -37.877379 ] } },
{ "type": "Feature", "properties": { "STOP_ID": "18452", "STOP_NAME": "63-Hughes St\/Waverley Rd (Malvern East)", "LATITUDE": -37.877103, "LONGITUDE": 145.056905, "TICKETZONE": "1", "ROUTEUSSP": "3\/3a" }, "geometry": { "type": "Point", "coordinates": [ 145.056905, -37.877103 ] } },
{ "type": "Feature", "properties": { "STOP_ID": "18453", "STOP_NAME": "62-Macgregor St\/Waverley Rd (Malvern East)", "LATITUDE": -37.876873, "LONGITUDE": 145.055001, "TICKETZONE": "1", "ROUTEUSSP": "3\/3a" }, "geometry": { "type": "Point", "coordinates": [ 145.055001, -37.876873 ] } },
{ "type": "Feature", "properties": { "STOP_ID": "18454", "STOP_NAME": "61-Tennyson St\/Waverley Rd (Malvern East)", "LATITUDE": -37.876376, "LONGITUDE": 145.05108, "TICKETZONE": "1", "ROUTEUSSP": "3\/3a" }, "geometry": { "type": "Point", "coordinates": [ 145.05108, -37.876376 ] } },
{ "type": "Feature", "properties": { "STOP_ID": "18455", "STOP_NAME": "60-Burke Rd\/Waverley Rd (Malvern East)", "LATITUDE": -37.876051, "LONGITUDE": 145.048326, "TICKETZONE": "1", "ROUTEUSSP": "3\/3a" }, "geometry": { "type": "Point", "coordinates": [ 145.048326, -37.876051 ] } },
{ "type": "Feature", "properties": { "STOP_ID": "18456", "STOP_NAME": "59-Dandenong Rd\/Waverley Rd (Caulfield East)", "LATITUDE": -37.875844, "LONGITUDE": 145.045069, "TICKETZONE": "1", "ROUTEUSSP": "3\/3a" }, "geometry": { "type": "Point", "coordinates": [ 145.045069, -37.875844 ] } },
{ "type": "Feature", "properties": { "STOP_ID": "18457", "STOP_NAME": "57-Caulfield Railway Station\/Derby Rd (Caulfield East)", "LATITUDE": -37.876404, "LONGITUDE": 145.041893, "TICKETZONE": "1", "ROUTEUSSP": "3\/3a" }, "geometry": { "type": "Point", "coordinates": [ 145.041893, -37.876404 ] } },
{ "type": "Feature", "properties": { "STOP_ID": "18459", "STOP_NAME": "56-Caulfield Racecourse\/Normanby Rd (Caulfield East)", "LATITUDE": -37.875357, "LONGITUDE": 145.039102, "TICKETZONE": "1", "ROUTEUSSP": "3\/3a" }, "geometry": { "type": "Point", "coordinates": [ 145.039102, -37.875357 ] } },
{ "type": "Feature", "properties": { "STOP_ID": "18460", "STOP_NAME": "55-Balaclava Rd\/Normanby Rd (Caulfield East)", "LATITUDE": -37.874494, "LONGITUDE": 145.038135, "TICKETZONE": "1", "ROUTEUSSP": "3\/3a" }, "geometry": { "type": "Point", "coordinates": [ 145.038135, -37.874494 ] } },
{ "type": "Feature", "properties": { "STOP_ID": "18461", "STOP_NAME": "54-Kambrook Rd\/Balaclava Rd (Caulfield East)", "LATITUDE": -37.874027, "LONGITUDE": 145.036124, "TICKETZONE": "1", "ROUTEUSSP": "3\/3a" }, "geometry": { "type": "Point", "coordinates": [ 145.036124, -37.874027 ] } },
{ "type": "Feature", "properties": { "STOP_ID": "18462", "STOP_NAME": "53-Caulfield Park\/Balaclava Rd (Caulfield North)", "LATITUDE": -37.873644, "LONGITUDE": 145.032041, "TICKETZONE": "1", "ROUTEUSSP": "3\/3a" }, "geometry": { "type": "Point", "coordinates": [ 145.032041, -37.873644 ] } },
{ "type": "Feature", "properties": { "STOP_ID": "18463", "STOP_NAME": "52-Caulfield Park Bowling Club\/255 Balaclava Rd (Caulfield North)", "LATITUDE": -37.873137, "LONGITUDE": 145.028144, "TICKETZONE": "1", "ROUTEUSSP": "3\/3a" }, "geometry": { "type": "Point", "coordinates": [ 145.028144, -37.873137 ] } },
{ "type": "Feature", "properties": { "STOP_ID": "18464", "STOP_NAME": "51-Hawthorn Rd\/Balaclava Rd (Caulfield North)", "LATITUDE": -37.872795, "LONGITUDE": 145.024947, "TICKETZONE": "1", "ROUTEUSSP": "3\/3a" }, "geometry": { "type": "Point", "coordinates": [ 145.024947, -37.872795 ] } },
{ "type": "Feature", "properties": { "STOP_ID": "18465", "STOP_NAME": "1-Flinders St\/Queens Bridge St (Melbourne City)", "LATITUDE": -37.819429, "LONGITUDE": 144.961106, "TICKETZONE": "1", "ROUTEUSSP": "58" }, "geometry": { "type": "Point", "coordinates": [ 144.961106, -37.819429 ] } },
{ "type": "Feature", "properties": { "STOP_ID": "18466", "STOP_NAME": "2-Flinders Lane\/Market St (Melbourne City)", "LATITUDE": -37.818539, "LONGITUDE": 144.960698, "TICKETZONE": "1", "ROUTEUSSP": "58" }, "geometry": { "type": "Point", "coordinates": [ 144.960698, -37.818539 ] } },
{ "type": "Feature", "properties": { "STOP_ID": "18467", "STOP_NAME": "3-William St\/Flinders Lane (Melbourne City)", "LATITUDE": -37.81864, "LONGITUDE": 144.959776, "TICKETZONE": "1", "ROUTEUSSP": "58" }, "geometry": { "type": "Point", "coordinates": [ 144.959776, -37.81864 ] } },
{ "type": "Feature", "properties": { "STOP_ID": "18468", "STOP_NAME": "47-Caulfield Junior College\/Balaclava Rd (Caulfield North)", "LATITUDE": -37.872146, "LONGITUDE": 145.021156, "TICKETZONE": "1", "ROUTEUSSP": "16,3\/3a" }, "geometry": { "type": "Point", "coordinates": [ 145.021156, -37.872146 ] } },
{ "type": "Feature", "properties": { "STOP_ID": "18469", "STOP_NAME": "4-Collins St\/William St (Melbourne City)", "LATITUDE": -37.817819, "LONGITUDE": 144.959173, "TICKETZONE": "1", "ROUTEUSSP": "58" }, "geometry": { "type": "Point", "coordinates": [ 144.959173, -37.817819 ] } },
{ "type": "Feature", "properties": { "STOP_ID": "18479", "STOP_NAME": "50-Wharton St\/Whitehorse Rd (Surrey Hills)", "LATITUDE": -37.814106, "LONGITUDE": 145.091376, "TICKETZONE": "1,2", "ROUTEUSSP": "109" }, "geometry": { "type": "Point", "coordinates": [ 145.091376, -37.814106 ] } },
{ "type": "Feature", "properties": { "STOP_ID": "18481", "STOP_NAME": "22-Dorcas St\/Eastern Rd (South Melbourne)", "LATITUDE": -37.832221, "LONGITUDE": 144.964992, "TICKETZONE": "1", "ROUTEUSSP": "1" }, "geometry": { "type": "Point", "coordinates": [ 144.964992, -37.832221 ] } },
{ "type": "Feature", "properties": { "STOP_ID": "18482", "STOP_NAME": "23-Moray St\/Park St (South Melbourne)", "LATITUDE": -37.834472, "LONGITUDE": 144.96385, "TICKETZONE": "1", "ROUTEUSSP": "1" }, "geometry": { "type": "Point", "coordinates": [ 144.96385, -37.834472 ] } },
{ "type": "Feature", "properties": { "STOP_ID": "18483", "STOP_NAME": "24-Clarendon St\/Park St (South Melbourne)", "LATITUDE": -37.835203, "LONGITUDE": 144.961308, "TICKETZONE": "1", "ROUTEUSSP": "1" }, "geometry": { "type": "Point", "coordinates": [ 144.961308, -37.835203 ] } },
{ "type": "Feature", "properties": { "STOP_ID": "18484", "STOP_NAME": "25-Cecil St\/Park St (South Melbourne)", "LATITUDE": -37.835909, "LONGITUDE": 144.958879, "TICKETZONE": "1", "ROUTEUSSP": "1" }, "geometry": { "type": "Point", "coordinates": [ 144.958879, -37.835909 ] } },
{ "type": "Feature", "properties": { "STOP_ID": "18485", "STOP_NAME": "41-Maribyrnong Park\/Maribyrnong Rd (Ascot Vale)", "LATITUDE": -37.770297, "LONGITUDE": 144.902571, "TICKETZONE": "1", "ROUTEUSSP": "57,82" }, "geometry": { "type": "Point", "coordinates": [ 144.902571, -37.770297 ] } },
{ "type": "Feature", "properties": { "STOP_ID": "18486", "STOP_NAME": "42-Clyde St\/Raleigh Rd (Maribyrnong)", "LATITUDE": -37.769771, "LONGITUDE": 144.898351, "TICKETZONE": "1", "ROUTEUSSP": "57,82" }, "geometry": { "type": "Point", "coordinates": [ 144.898351, -37.769771 ] } },
{ "type": "Feature", "properties": { "STOP_ID": "18487", "STOP_NAME": "43-Van Ness Ave\/Raleigh Rd (Maribyrnong)", "LATITUDE": -37.769505, "LONGITUDE": 144.896065, "TICKETZONE": "1", "ROUTEUSSP": "57,82" }, "geometry": { "type": "Point", "coordinates": [ 144.896065, -37.769505 ] } },
{ "type": "Feature", "properties": { "STOP_ID": "18488", "STOP_NAME": "44-Warrs Rd\/Raleigh Rd (Maribyrnong)", "LATITUDE": -37.769057, "LONGITUDE": 144.892184, "TICKETZONE": "1", "ROUTEUSSP": "57,82" }, "geometry": { "type": "Point", "coordinates": [ 144.892184, -37.769057 ] } },
{ "type": "Feature", "properties": { "STOP_ID": "18489", "STOP_NAME": "45-Maribyrnong Community Centre\/Raleigh Rd (Maribyrnong)", "LATITUDE": -37.768739, "LONGITUDE": 144.889548, "TICKETZONE": "1", "ROUTEUSSP": "57,82" }, "geometry": { "type": "Point", "coordinates": [ 144.889548, -37.768739 ] } },
{ "type": "Feature", "properties": { "STOP_ID": "18490", "STOP_NAME": "46-Rosamond Rd\/Raleigh Rd (Maribyrnong)", "LATITUDE": -37.769003, "LONGITUDE": 144.887157, "TICKETZONE": "1", "ROUTEUSSP": "57,82" }, "geometry": { "type": "Point", "coordinates": [ 144.887157, -37.769003 ] } },
{ "type": "Feature", "properties": { "STOP_ID": "18491", "STOP_NAME": "48-Wests Rd\/Raleigh Rd (Maribyrnong)", "LATITUDE": -37.769403, "LONGITUDE": 144.883319, "TICKETZONE": "1", "ROUTEUSSP": "57,82" }, "geometry": { "type": "Point", "coordinates": [ 144.883319, -37.769403 ] } },
{ "type": "Feature", "properties": { "STOP_ID": "18492", "STOP_NAME": "49-Highpoint Shopping Centre\/Wests Rd (Maribyrnong)", "LATITUDE": -37.773278, "LONGITUDE": 144.882312, "TICKETZONE": "1", "ROUTEUSSP": "82" }, "geometry": { "type": "Point", "coordinates": [ 144.882312, -37.773278 ] } },
{ "type": "Feature", "properties": { "STOP_ID": "18493", "STOP_NAME": "50-Williamson Rd\/Wests Rd (Maribyrnong)", "LATITUDE": -37.77493, "LONGITUDE": 144.881992, "TICKETZONE": "1", "ROUTEUSSP": "82" }, "geometry": { "type": "Point", "coordinates": [ 144.881992, -37.77493 ] } },
{ "type": "Feature", "properties": { "STOP_ID": "18494", "STOP_NAME": "51-Williamson Rd\/Rosamond Rd (Maidstone)", "LATITUDE": -37.776105, "LONGITUDE": 144.885671, "TICKETZONE": "1", "ROUTEUSSP": "82" }, "geometry": { "type": "Point", "coordinates": [ 144.885671, -37.776105 ] } },
{ "type": "Feature", "properties": { "STOP_ID": "18495", "STOP_NAME": "52-River St\/Rosamond Rd (Maribyrnong)", "LATITUDE": -37.778817, "LONGITUDE": 144.885151, "TICKETZONE": "1", "ROUTEUSSP": "82" }, "geometry": { "type": "Point", "coordinates": [ 144.885151, -37.778817 ] } },
{ "type": "Feature", "properties": { "STOP_ID": "18496", "STOP_NAME": "53-Maribyrnong College\/River St (Maribyrnong)", "LATITUDE": -37.779545, "LONGITUDE": 144.888094, "TICKETZONE": "1", "ROUTEUSSP": "82" }, "geometry": { "type": "Point", "coordinates": [ 144.888094, -37.779545 ] } },
{ "type": "Feature", "properties": { "STOP_ID": "18497", "STOP_NAME": "54-Gordon St\/River St (Maribyrnong)", "LATITUDE": -37.779917, "LONGITUDE": 144.89124, "TICKETZONE": "1", "ROUTEUSSP": "82" }, "geometry": { "type": "Point", "coordinates": [ 144.89124, -37.779917 ] } },
{ "type": "Feature", "properties": { "STOP_ID": "18498", "STOP_NAME": "55-Lyric St\/Gordon St (Maribyrnong)", "LATITUDE": -37.781947, "LONGITUDE": 144.891364, "TICKETZONE": "1", "ROUTEUSSP": "82" }, "geometry": { "type": "Point", "coordinates": [ 144.891364, -37.781947 ] } },
{ "type": "Feature", "properties": { "STOP_ID": "18499", "STOP_NAME": "56-Edgewater Square\/Gordon St (Maribyrnong)", "LATITUDE": -37.784444, "LONGITUDE": 144.890873, "TICKETZONE": "1", "ROUTEUSSP": "82" }, "geometry": { "type": "Point", "coordinates": [ 144.890873, -37.784444 ] } },
{ "type": "Feature", "properties": { "STOP_ID": "18500", "STOP_NAME": "57-Titch St\/Gordon St (Footscray)", "LATITUDE": -37.789006, "LONGITUDE": 144.890005, "TICKETZONE": "1", "ROUTEUSSP": "82" }, "geometry": { "type": "Point", "coordinates": [ 144.890005, -37.789006 ] } },
{ "type": "Feature", "properties": { "STOP_ID": "18501", "STOP_NAME": "58-Ballarat Rd\/Gordon St (Footscray)", "LATITUDE": -37.791072, "LONGITUDE": 144.889617, "TICKETZONE": "1", "ROUTEUSSP": "82" }, "geometry": { "type": "Point", "coordinates": [ 144.889617, -37.791072 ] } },
{ "type": "Feature", "properties": { "STOP_ID": "18505", "STOP_NAME": "59-Droop St\/Ballarat Rd (Footscray)", "LATITUDE": -37.792313, "LONGITUDE": 144.893511, "TICKETZONE": "1", "ROUTEUSSP": "82" }, "geometry": { "type": "Point", "coordinates": [ 144.893511, -37.792313 ] } },
{ "type": "Feature", "properties": { "STOP_ID": "20546", "STOP_NAME": "63-Toorak Rd\/Glenferrie Rd (Malvern)", "LATITUDE": -37.843646, "LONGITUDE": 145.031657, "TICKETZONE": "1", "ROUTEUSSP": "16" }, "geometry": { "type": "Point", "coordinates": [ 145.031657, -37.843646 ] } },
{ "type": "Feature", "properties": { "STOP_ID": "18506", "STOP_NAME": "60-Tiernan St\/Droop St (Footscray)", "LATITUDE": -37.794619, "LONGITUDE": 144.895489, "TICKETZONE": "1", "ROUTEUSSP": "82" }, "geometry": { "type": "Point", "coordinates": [ 144.895489, -37.794619 ] } },
{ "type": "Feature", "properties": { "STOP_ID": "18507", "STOP_NAME": "61-Geelong Rd\/Droop St (Footscray)", "LATITUDE": -37.796138, "LONGITUDE": 144.896764, "TICKETZONE": "1", "ROUTEUSSP": "82" }, "geometry": { "type": "Point", "coordinates": [ 144.896764, -37.796138 ] } },
{ "type": "Feature", "properties": { "STOP_ID": "18508", "STOP_NAME": "62-Nicholson St\/Droop St (Footscray)", "LATITUDE": -37.799422, "LONGITUDE": 144.899521, "TICKETZONE": "1", "ROUTEUSSP": "82" }, "geometry": { "type": "Point", "coordinates": [ 144.899521, -37.799422 ] } },
{ "type": "Feature", "properties": { "STOP_ID": "18509", "STOP_NAME": "63-Leeds St\/Hopkins St (Footscray)", "LATITUDE": -37.799853, "LONGITUDE": 144.900917, "TICKETZONE": "1", "ROUTEUSSP": "82" }, "geometry": { "type": "Point", "coordinates": [ 144.900917, -37.799853 ] } },
{ "type": "Feature", "properties": { "STOP_ID": "18511", "STOP_NAME": "33-Chaucer St\/Ascot Vale Rd (Moonee Ponds)", "LATITUDE": -37.770053, "LONGITUDE": 144.924443, "TICKETZONE": "1", "ROUTEUSSP": "82" }, "geometry": { "type": "Point", "coordinates": [ 144.924443, -37.770053 ] } },
{ "type": "Feature", "properties": { "STOP_ID": "18512", "STOP_NAME": "34-Maribyrnong Rd\/Ascot Vale Rd (Moonee Ponds)", "LATITUDE": -37.772452, "LONGITUDE": 144.924024, "TICKETZONE": "1", "ROUTEUSSP": "82" }, "geometry": { "type": "Point", "coordinates": [ 144.924024, -37.772452 ] } },
{ "type": "Feature", "properties": { "STOP_ID": "18513", "STOP_NAME": "35-Moore St\/Maribyrnong Rd (Moonee Ponds)", "LATITUDE": -37.77234, "LONGITUDE": 144.921234, "TICKETZONE": "1", "ROUTEUSSP": "82" }, "geometry": { "type": "Point", "coordinates": [ 144.921234, -37.77234 ] } },
{ "type": "Feature", "properties": { "STOP_ID": "18514", "STOP_NAME": "36-77 Maribyrnong Rd (Moonee Ponds)", "LATITUDE": -37.772026, "LONGITUDE": 144.918257, "TICKETZONE": "1", "ROUTEUSSP": "82" }, "geometry": { "type": "Point", "coordinates": [ 144.918257, -37.772026 ] } },
{ "type": "Feature", "properties": { "STOP_ID": "18515", "STOP_NAME": "37-Union Rd\/Maribyrnong Rd (Moonee Ponds)", "LATITUDE": -37.771813, "LONGITUDE": 144.91639, "TICKETZONE": "1", "ROUTEUSSP": "82" }, "geometry": { "type": "Point", "coordinates": [ 144.91639, -37.771813 ] } },
{ "type": "Feature", "properties": { "STOP_ID": "18516", "STOP_NAME": "38-Ferguson St\/Maribyrnong Rd (Ascot Vale)", "LATITUDE": -37.771415, "LONGITUDE": 144.912757, "TICKETZONE": "1", "ROUTEUSSP": "57,82" }, "geometry": { "type": "Point", "coordinates": [ 144.912757, -37.771415 ] } },
{ "type": "Feature", "properties": { "STOP_ID": "18517", "STOP_NAME": "39-Bowen St\/Maribyrnong Rd (Moonee Ponds)", "LATITUDE": -37.771027, "LONGITUDE": 144.90918, "TICKETZONE": "1", "ROUTEUSSP": "57,82" }, "geometry": { "type": "Point", "coordinates": [ 144.90918, -37.771027 ] } },
{ "type": "Feature", "properties": { "STOP_ID": "18518", "STOP_NAME": "40-Epsom Rd\/Maribyrnong Rd (Ascot Vale)", "LATITUDE": -37.770631, "LONGITUDE": 144.905672, "TICKETZONE": "1", "ROUTEUSSP": "57,82" }, "geometry": { "type": "Point", "coordinates": [ 144.905672, -37.770631 ] } },
{ "type": "Feature", "properties": { "STOP_ID": "18519", "STOP_NAME": "37-Maribyrnong Rd\/Union Rd (Ascot Vale)", "LATITUDE": -37.771951, "LONGITUDE": 144.916057, "TICKETZONE": "1", "ROUTEUSSP": "57" }, "geometry": { "type": "Point", "coordinates": [ 144.916057, -37.771951 ] } },
{ "type": "Feature", "properties": { "STOP_ID": "18520", "STOP_NAME": "36-St Leonards Rd\/Union Rd (Ascot Vale)", "LATITUDE": -37.773703, "LONGITUDE": 144.91578, "TICKETZONE": "1", "ROUTEUSSP": "57" }, "geometry": { "type": "Point", "coordinates": [ 144.91578, -37.773703 ] } },
{ "type": "Feature", "properties": { "STOP_ID": "18521", "STOP_NAME": "35-Munro St\/Union Rd (Ascot Vale)", "LATITUDE": -37.776103, "LONGITUDE": 144.915395, "TICKETZONE": "1", "ROUTEUSSP": "57" }, "geometry": { "type": "Point", "coordinates": [ 144.915395, -37.776103 ] } },
{ "type": "Feature", "properties": { "STOP_ID": "18522", "STOP_NAME": "34-Burrowes St\/Union Rd (Ascot Vale)", "LATITUDE": -37.778628, "LONGITUDE": 144.914983, "TICKETZONE": "1", "ROUTEUSSP": "57" }, "geometry": { "type": "Point", "coordinates": [ 144.914983, -37.778628 ] } },
{ "type": "Feature", "properties": { "STOP_ID": "18524", "STOP_NAME": "32-Sandown Rd\/Epsom Rd (Ascot Vale)", "LATITUDE": -37.782668, "LONGITUDE": 144.916675, "TICKETZONE": "1", "ROUTEUSSP": "57" }, "geometry": { "type": "Point", "coordinates": [ 144.916675, -37.782668 ] } },
{ "type": "Feature", "properties": { "STOP_ID": "18525", "STOP_NAME": "31-Racing Victoria\/400 Epsom Rd (Flemington)", "LATITUDE": -37.78439, "LONGITUDE": 144.918251, "TICKETZONE": "1", "ROUTEUSSP": "57" }, "geometry": { "type": "Point", "coordinates": [ 144.918251, -37.78439 ] } },
{ "type": "Feature", "properties": { "STOP_ID": "18526", "STOP_NAME": "30-Flemington Racecourse\/Epsom Rd (Flemington)", "LATITUDE": -37.785416, "LONGITUDE": 144.919221, "TICKETZONE": "1", "ROUTEUSSP": "57" }, "geometry": { "type": "Point", "coordinates": [ 144.919221, -37.785416 ] } },
{ "type": "Feature", "properties": { "STOP_ID": "18527", "STOP_NAME": "29-Flemington Racecourse\/Racecourse Rd (Flemington)", "LATITUDE": -37.787464, "LONGITUDE": 144.921855, "TICKETZONE": "1", "ROUTEUSSP": "57" }, "geometry": { "type": "Point", "coordinates": [ 144.921855, -37.787464 ] } },
{ "type": "Feature", "properties": { "STOP_ID": "18528", "STOP_NAME": "28-Smithfield Rd\/Racecourse Rd (Flemington)", "LATITUDE": -37.787741, "LONGITUDE": 144.925345, "TICKETZONE": "1", "ROUTEUSSP": "57" }, "geometry": { "type": "Point", "coordinates": [ 144.925345, -37.787741 ] } },
{ "type": "Feature", "properties": { "STOP_ID": "18529", "STOP_NAME": "26-Newmarket Plaza\/Racecourse Rd (Kensington)", "LATITUDE": -37.788074, "LONGITUDE": 144.92839, "TICKETZONE": "1", "ROUTEUSSP": "57" }, "geometry": { "type": "Point", "coordinates": [ 144.92839, -37.788074 ] } },
{ "type": "Feature", "properties": { "STOP_ID": "18530", "STOP_NAME": "25-Wellington St\/Racecourse Rd (Flemington)", "LATITUDE": -37.788499, "LONGITUDE": 144.931512, "TICKETZONE": "1", "ROUTEUSSP": "57" }, "geometry": { "type": "Point", "coordinates": [ 144.931512, -37.788499 ] } },
{ "type": "Feature", "properties": { "STOP_ID": "18531", "STOP_NAME": "24-Collett St\/Racecourse Rd (Kensington)", "LATITUDE": -37.788507, "LONGITUDE": 144.933522, "TICKETZONE": "1", "ROUTEUSSP": "57" }, "geometry": { "type": "Point", "coordinates": [ 144.933522, -37.788507 ] } },
{ "type": "Feature", "properties": { "STOP_ID": "18532", "STOP_NAME": "23-Stubbs St\/Racecourse Rd (Flemington)", "LATITUDE": -37.788797, "LONGITUDE": 144.936194, "TICKETZONE": "1", "ROUTEUSSP": "57" }, "geometry": { "type": "Point", "coordinates": [ 144.936194, -37.788797 ] } },
{ "type": "Feature", "properties": { "STOP_ID": "18533", "STOP_NAME": "22-Boundary Rd\/Racecourse Rd (North Melbourne)", "LATITUDE": -37.789209, "LONGITUDE": 144.940145, "TICKETZONE": "1", "ROUTEUSSP": "57" }, "geometry": { "type": "Point", "coordinates": [ 144.940145, -37.789209 ] } },
{ "type": "Feature", "properties": { "STOP_ID": "18536", "STOP_NAME": "19-Abbotsford St Interchange\/Abbotsford St (North Melbourne)", "LATITUDE": -37.793729, "LONGITUDE": 144.947163, "TICKETZONE": "1", "ROUTEUSSP": "57" }, "geometry": { "type": "Point", "coordinates": [ 144.947163, -37.793729 ] } },
{ "type": "Feature", "properties": { "STOP_ID": "18537", "STOP_NAME": "18-Erskine St\/Abbotsford St (North Melbourne)", "LATITUDE": -37.795246, "LONGITUDE": 144.946803, "TICKETZONE": "1", "ROUTEUSSP": "57" }, "geometry": { "type": "Point", "coordinates": [ 144.946803, -37.795246 ] } },
{ "type": "Feature", "properties": { "STOP_ID": "18538", "STOP_NAME": "17-Canning St\/Abbotsford St (North Melbourne)", "LATITUDE": -37.796719, "LONGITUDE": 144.946535, "TICKETZONE": "1", "ROUTEUSSP": "57" }, "geometry": { "type": "Point", "coordinates": [ 144.946535, -37.796719 ] } },
{ "type": "Feature", "properties": { "STOP_ID": "18539", "STOP_NAME": "16-Haines St\/Abbotsford St (North Melbourne)", "LATITUDE": -37.798606, "LONGITUDE": 144.946199, "TICKETZONE": "1", "ROUTEUSSP": "57" }, "geometry": { "type": "Point", "coordinates": [ 144.946199, -37.798606 ] } },
{ "type": "Feature", "properties": { "STOP_ID": "18540", "STOP_NAME": "15-Arden St\/Abbotsford St (North Melbourne)", "LATITUDE": -37.800672, "LONGITUDE": 144.945835, "TICKETZONE": "1", "ROUTEUSSP": "57" }, "geometry": { "type": "Point", "coordinates": [ 144.945835, -37.800672 ] } },
{ "type": "Feature", "properties": { "STOP_ID": "18541", "STOP_NAME": "14-Abbotsford St\/Queensberry St (North Melbourne)", "LATITUDE": -37.802663, "LONGITUDE": 144.945802, "TICKETZONE": "1", "ROUTEUSSP": "57" }, "geometry": { "type": "Point", "coordinates": [ 144.945802, -37.802663 ] } },
{ "type": "Feature", "properties": { "STOP_ID": "18543", "STOP_NAME": "23-Royal Park\/Royal Park (Parkville)", "LATITUDE": -37.791404, "LONGITUDE": 144.949249, "TICKETZONE": "1", "ROUTEUSSP": "58" }, "geometry": { "type": "Point", "coordinates": [ 144.949249, -37.791404 ] } },
{ "type": "Feature", "properties": { "STOP_ID": "18544", "STOP_NAME": "24-Elliott Ave\/Royal Park (Parkville)", "LATITUDE": -37.787986, "LONGITUDE": 144.949627, "TICKETZONE": "1", "ROUTEUSSP": "58" }, "geometry": { "type": "Point", "coordinates": [ 144.949627, -37.787986 ] } },
{ "type": "Feature", "properties": { "STOP_ID": "18545", "STOP_NAME": "25-State Netball Hockey Centre\/Royal Park (Parkville)", "LATITUDE": -37.784327, "LONGITUDE": 144.948559, "TICKETZONE": "1", "ROUTEUSSP": "58" }, "geometry": { "type": "Point", "coordinates": [ 144.948559, -37.784327 ] } },
{ "type": "Feature", "properties": { "STOP_ID": "18546", "STOP_NAME": "26-Melbourne Zoo\/Royal Park (Parkville)", "LATITUDE": -37.782402, "LONGITUDE": 144.949293, "TICKETZONE": "1", "ROUTEUSSP": "58" }, "geometry": { "type": "Point", "coordinates": [ 144.949293, -37.782402 ] } },
{ "type": "Feature", "properties": { "STOP_ID": "18547", "STOP_NAME": "27-Royal Park Station\/Royal Park (Parkville)", "LATITUDE": -37.780688, "LONGITUDE": 144.951237, "TICKETZONE": "1", "ROUTEUSSP": "58" }, "geometry": { "type": "Point", "coordinates": [ 144.951237, -37.780688 ] } },
{ "type": "Feature", "properties": { "STOP_ID": "18548", "STOP_NAME": "28-Park St\/Royal Park (Parkville)", "LATITUDE": -37.776837, "LONGITUDE": 144.949526, "TICKETZONE": "1", "ROUTEUSSP": "58" }, "geometry": { "type": "Point", "coordinates": [ 144.949526, -37.776837 ] } },
{ "type": "Feature", "properties": { "STOP_ID": "18549", "STOP_NAME": "29-Brunswick Rd\/Royal Park (Parkville)", "LATITUDE": -37.775814, "LONGITUDE": 144.948748, "TICKETZONE": "1", "ROUTEUSSP": "58" }, "geometry": { "type": "Point", "coordinates": [ 144.948748, -37.775814 ] } },
{ "type": "Feature", "properties": { "STOP_ID": "18550", "STOP_NAME": "30-Union Square Shopping Centre\/Grantham St (Brunswick West)", "LATITUDE": -37.772562, "LONGITUDE": 144.949315, "TICKETZONE": "1", "ROUTEUSSP": "58" }, "geometry": { "type": "Point", "coordinates": [ 144.949315, -37.772562 ] } },
{ "type": "Feature", "properties": { "STOP_ID": "18551", "STOP_NAME": "31-Dawson St\/Grantham St (Brunswick West)", "LATITUDE": -37.770298, "LONGITUDE": 144.949741, "TICKETZONE": "1", "ROUTEUSSP": "58" }, "geometry": { "type": "Point", "coordinates": [ 144.949741, -37.770298 ] } },
{ "type": "Feature", "properties": { "STOP_ID": "18552", "STOP_NAME": "32-Foden St\/Dawson St (Brunswick)", "LATITUDE": -37.769923, "LONGITUDE": 144.947356, "TICKETZONE": "1", "ROUTEUSSP": "58" }, "geometry": { "type": "Point", "coordinates": [ 144.947356, -37.769923 ] } },
{ "type": "Feature", "properties": { "STOP_ID": "18553", "STOP_NAME": "33-Daly St\/Dawson St (Brunswick)", "LATITUDE": -37.769593, "LONGITUDE": 144.944425, "TICKETZONE": "1", "ROUTEUSSP": "58" }, "geometry": { "type": "Point", "coordinates": [ 144.944425, -37.769593 ] } },
{ "type": "Feature", "properties": { "STOP_ID": "18554", "STOP_NAME": "34-Smith St\/Melville Rd (Brunswick West)", "LATITUDE": -37.767614, "LONGITUDE": 144.943095, "TICKETZONE": "1", "ROUTEUSSP": "58" }, "geometry": { "type": "Point", "coordinates": [ 144.943095, -37.767614 ] } },
{ "type": "Feature", "properties": { "STOP_ID": "18555", "STOP_NAME": "35-Victoria St\/Melville Rd (Brunswick West)", "LATITUDE": -37.764912, "LONGITUDE": 144.94368, "TICKETZONE": "1", "ROUTEUSSP": "58" }, "geometry": { "type": "Point", "coordinates": [ 144.94368, -37.764912 ] } },
{ "type": "Feature", "properties": { "STOP_ID": "18556", "STOP_NAME": "36-Hope St\/Melville Rd (Brunswick West)", "LATITUDE": -37.762162, "LONGITUDE": 144.944154, "TICKETZONE": "1", "ROUTEUSSP": "58" }, "geometry": { "type": "Point", "coordinates": [ 144.944154, -37.762162 ] } },
{ "type": "Feature", "properties": { "STOP_ID": "18557", "STOP_NAME": "37-Albion St\/Melville Rd (Brunswick West)", "LATITUDE": -37.75874, "LONGITUDE": 144.944771, "TICKETZONE": "1", "ROUTEUSSP": "58" }, "geometry": { "type": "Point", "coordinates": [ 144.944771, -37.75874 ] } },
{ "type": "Feature", "properties": { "STOP_ID": "18558", "STOP_NAME": "38-Jacobs Reserve\/Melville Rd (Brunswick West)", "LATITUDE": -37.756764, "LONGITUDE": 144.945154, "TICKETZONE": "1", "ROUTEUSSP": "58" }, "geometry": { "type": "Point", "coordinates": [ 144.945154, -37.756764 ] } },
{ "type": "Feature", "properties": { "STOP_ID": "18559", "STOP_NAME": "39-McGregor Ave\/Melville Rd (Brunswick West)", "LATITUDE": -37.754779, "LONGITUDE": 144.94555, "TICKETZONE": "1", "ROUTEUSSP": "58" }, "geometry": { "type": "Point", "coordinates": [ 144.94555, -37.754779 ] } },
{ "type": "Feature", "properties": { "STOP_ID": "18560", "STOP_NAME": "40-Moreland Rd\/Melville Rd (Brunswick West)", "LATITUDE": -37.753429, "LONGITUDE": 144.945655, "TICKETZONE": "1", "ROUTEUSSP": "58" }, "geometry": { "type": "Point", "coordinates": [ 144.945655, -37.753429 ] } },
{ "type": "Feature", "properties": { "STOP_ID": "18561", "STOP_NAME": "41-Woodlands Ave\/Melville Rd (Pascoe Vale South)", "LATITUDE": -37.749512, "LONGITUDE": 144.946354, "TICKETZONE": "1", "ROUTEUSSP": "58" }, "geometry": { "type": "Point", "coordinates": [ 144.946354, -37.749512 ] } },
{ "type": "Feature", "properties": { "STOP_ID": "18562", "STOP_NAME": "42-Reynard St\/Melville Rd (Pascoe Vale South)", "LATITUDE": -37.746611, "LONGITUDE": 144.944334, "TICKETZONE": "1", "ROUTEUSSP": "58" }, "geometry": { "type": "Point", "coordinates": [ 144.944334, -37.746611 ] } },
{ "type": "Feature", "properties": { "STOP_ID": "18563", "STOP_NAME": "43-Princes Tce\/Melville Rd (Pascoe Vale South)", "LATITUDE": -37.744122, "LONGITUDE": 144.944767, "TICKETZONE": "1", "ROUTEUSSP": "58" }, "geometry": { "type": "Point", "coordinates": [ 144.944767, -37.744122 ] } },
{ "type": "Feature", "properties": { "STOP_ID": "18564", "STOP_NAME": "44-Brearley Pde\/Melville Rd (Pascoe Vale South)", "LATITUDE": -37.741966, "LONGITUDE": 144.945133, "TICKETZONE": "1", "ROUTEUSSP": "58" }, "geometry": { "type": "Point", "coordinates": [ 144.945133, -37.741966 ] } },
{ "type": "Feature", "properties": { "STOP_ID": "18566", "STOP_NAME": "51-Balwyn Rd\/Doncaster Rd (Balwyn North)", "LATITUDE": -37.794656, "LONGITUDE": 145.08454, "TICKETZONE": "1", "ROUTEUSSP": "48" }, "geometry": { "type": "Point", "coordinates": [ 145.08454, -37.794656 ] } },
{ "type": "Feature", "properties": { "STOP_ID": "18567", "STOP_NAME": "50-Dight Ave\/Doncaster Rd (Balwyn North)", "LATITUDE": -37.794372, "LONGITUDE": 145.080936, "TICKETZONE": "1", "ROUTEUSSP": "48" }, "geometry": { "type": "Point", "coordinates": [ 145.080936, -37.794372 ] } },
{ "type": "Feature", "properties": { "STOP_ID": "18568", "STOP_NAME": "49-Buchanan Ave\/Doncaster Rd (Balwyn North)", "LATITUDE": -37.793941, "LONGITUDE": 145.077722, "TICKETZONE": "1", "ROUTEUSSP": "48" }, "geometry": { "type": "Point", "coordinates": [ 145.077722, -37.793941 ] } },
{ "type": "Feature", "properties": { "STOP_ID": "18569", "STOP_NAME": "48-Osburn Ave\/Doncaster Rd (Balwyn North)", "LATITUDE": -37.793412, "LONGITUDE": 145.074567, "TICKETZONE": "1", "ROUTEUSSP": "48" }, "geometry": { "type": "Point", "coordinates": [ 145.074567, -37.793412 ] } },
{ "type": "Feature", "properties": { "STOP_ID": "18570", "STOP_NAME": "47-North Balwyn Shopping Centre\/Doncaster Rd (Balwyn North)", "LATITUDE": -37.792711, "LONGITUDE": 145.070861, "TICKETZONE": "1", "ROUTEUSSP": "48" }, "geometry": { "type": "Point", "coordinates": [ 145.070861, -37.792711 ] } },
{ "type": "Feature", "properties": { "STOP_ID": "18571", "STOP_NAME": "46-Wattle Ave\/Doncaster Rd (Balwyn North)", "LATITUDE": -37.793006, "LONGITUDE": 145.067401, "TICKETZONE": "1", "ROUTEUSSP": "48" }, "geometry": { "type": "Point", "coordinates": [ 145.067401, -37.793006 ] } },
{ "type": "Feature", "properties": { "STOP_ID": "18573", "STOP_NAME": "26-Ferrars St\/Park St (South Melbourne)", "LATITUDE": -37.836632, "LONGITUDE": 144.956405, "TICKETZONE": "1", "ROUTEUSSP": "1" }, "geometry": { "type": "Point", "coordinates": [ 144.956405, -37.836632 ] } },
{ "type": "Feature", "properties": { "STOP_ID": "18574", "STOP_NAME": "43-Kew High School\/High St (Kew East)", "LATITUDE": -37.7947, "LONGITUDE": 145.061349, "TICKETZONE": "1", "ROUTEUSSP": "48" }, "geometry": { "type": "Point", "coordinates": [ 145.061349, -37.7947 ] } },
{ "type": "Feature", "properties": { "STOP_ID": "18575", "STOP_NAME": "42-Woodlands Ave\/High St (Kew East)", "LATITUDE": -37.796324, "LONGITUDE": 145.057672, "TICKETZONE": "1", "ROUTEUSSP": "48" }, "geometry": { "type": "Point", "coordinates": [ 145.057672, -37.796324 ] } },
{ "type": "Feature", "properties": { "STOP_ID": "18576", "STOP_NAME": "41-Station St\/High St (Kew East)", "LATITUDE": -37.797966, "LONGITUDE": 145.053927, "TICKETZONE": "1", "ROUTEUSSP": "48" }, "geometry": { "type": "Point", "coordinates": [ 145.053927, -37.797966 ] } },
{ "type": "Feature", "properties": { "STOP_ID": "18577", "STOP_NAME": "40-Harp Village\/High St (Kew East)", "LATITUDE": -37.798721, "LONGITUDE": 145.052192, "TICKETZONE": "1", "ROUTEUSSP": "48" }, "geometry": { "type": "Point", "coordinates": [ 145.052192, -37.798721 ] } },
{ "type": "Feature", "properties": { "STOP_ID": "18578", "STOP_NAME": "39-Harp Rd\/High St (Kew East)", "LATITUDE": -37.799564, "LONGITUDE": 145.050273, "TICKETZONE": "1", "ROUTEUSSP": "48" }, "geometry": { "type": "Point", "coordinates": [ 145.050273, -37.799564 ] } },
{ "type": "Feature", "properties": { "STOP_ID": "18579", "STOP_NAME": "38-Victoria Park\/High St (Kew East)", "LATITUDE": -37.801316, "LONGITUDE": 145.046172, "TICKETZONE": "1", "ROUTEUSSP": "48" }, "geometry": { "type": "Point", "coordinates": [ 145.046172, -37.801316 ] } },
{ "type": "Feature", "properties": { "STOP_ID": "18580", "STOP_NAME": "37-Kew Cemetery\/High St (Kew)", "LATITUDE": -37.802582, "LONGITUDE": 145.042652, "TICKETZONE": "1", "ROUTEUSSP": "48" }, "geometry": { "type": "Point", "coordinates": [ 145.042652, -37.802582 ] } },
{ "type": "Feature", "properties": { "STOP_ID": "18581", "STOP_NAME": "36-Gladstone St\/High St (Kew)", "LATITUDE": -37.803521, "LONGITUDE": 145.040026, "TICKETZONE": "1", "ROUTEUSSP": "48" }, "geometry": { "type": "Point", "coordinates": [ 145.040026, -37.803521 ] } },
{ "type": "Feature", "properties": { "STOP_ID": "18582", "STOP_NAME": "35-Charles St\/High St (Kew)", "LATITUDE": -37.804907, "LONGITUDE": 145.036139, "TICKETZONE": "1", "ROUTEUSSP": "48" }, "geometry": { "type": "Point", "coordinates": [ 145.036139, -37.804907 ] } },
{ "type": "Feature", "properties": { "STOP_ID": "18583", "STOP_NAME": "34-Union St\/High St (Kew)", "LATITUDE": -37.80564, "LONGITUDE": 145.034166, "TICKETZONE": "1", "ROUTEUSSP": "48" }, "geometry": { "type": "Point", "coordinates": [ 145.034166, -37.80564 ] } },
{ "type": "Feature", "properties": { "STOP_ID": "18584", "STOP_NAME": "33-Kew Shopping Centre\/High St (Kew)", "LATITUDE": -37.806674, "LONGITUDE": 145.031311, "TICKETZONE": "1", "ROUTEUSSP": "48" }, "geometry": { "type": "Point", "coordinates": [ 145.031311, -37.806674 ] } },
{ "type": "Feature", "properties": { "STOP_ID": "18588", "STOP_NAME": "25-Brook St\/Church St (Hawthorn)", "LATITUDE": -37.815756, "LONGITUDE": 145.020982, "TICKETZONE": "1", "ROUTEUSSP": "48" }, "geometry": { "type": "Point", "coordinates": [ 145.020982, -37.815756 ] } },
{ "type": "Feature", "properties": { "STOP_ID": "18589", "STOP_NAME": "24-Hill St\/Church St (Hawthorn)", "LATITUDE": -37.817971, "LONGITUDE": 145.018753, "TICKETZONE": "1", "ROUTEUSSP": "48" }, "geometry": { "type": "Point", "coordinates": [ 145.018753, -37.817971 ] } },
{ "type": "Feature", "properties": { "STOP_ID": "18591", "STOP_NAME": "65-Victoria St\/Church St (Richmond)", "LATITUDE": -37.810726, "LONGITUDE": 145.000624, "TICKETZONE": "1", "ROUTEUSSP": "78" }, "geometry": { "type": "Point", "coordinates": [ 145.000624, -37.810726 ] } },
{ "type": "Feature", "properties": { "STOP_ID": "18592", "STOP_NAME": "64-Elizabeth St\/Church St (Richmond)", "LATITUDE": -37.812602, "LONGITUDE": 145.000199, "TICKETZONE": "1", "ROUTEUSSP": "78" }, "geometry": { "type": "Point", "coordinates": [ 145.000199, -37.812602 ] } },
{ "type": "Feature", "properties": { "STOP_ID": "18593", "STOP_NAME": "63-Tweedie Pl\/Church St (Richmond)", "LATITUDE": -37.814318, "LONGITUDE": 144.99988, "TICKETZONE": "1", "ROUTEUSSP": "78" }, "geometry": { "type": "Point", "coordinates": [ 144.99988, -37.814318 ] } },
{ "type": "Feature", "properties": { "STOP_ID": "18594", "STOP_NAME": "62-Highett St\/Church St (Richmond)", "LATITUDE": -37.815962, "LONGITUDE": 144.999574, "TICKETZONE": "1", "ROUTEUSSP": "78" }, "geometry": { "type": "Point", "coordinates": [ 144.999574, -37.815962 ] } },
{ "type": "Feature", "properties": { "STOP_ID": "18595", "STOP_NAME": "61-Bridge Rd\/Church St (Richmond)", "LATITUDE": -37.818729, "LONGITUDE": 144.999079, "TICKETZONE": "1", "ROUTEUSSP": "78" }, "geometry": { "type": "Point", "coordinates": [ 144.999079, -37.818729 ] } },
{ "type": "Feature", "properties": { "STOP_ID": "18596", "STOP_NAME": "60-Abinger St\/Church St (Richmond)", "LATITUDE": -37.820302, "LONGITUDE": 144.99881, "TICKETZONE": "1", "ROUTEUSSP": "78" }, "geometry": { "type": "Point", "coordinates": [ 144.99881, -37.820302 ] } },
{ "type": "Feature", "properties": { "STOP_ID": "18597", "STOP_NAME": "59-St Ignatius Church\/Church St (Richmond)", "LATITUDE": -37.821838, "LONGITUDE": 144.998541, "TICKETZONE": "1", "ROUTEUSSP": "78" }, "geometry": { "type": "Point", "coordinates": [ 144.998541, -37.821838 ] } },
{ "type": "Feature", "properties": { "STOP_ID": "18598", "STOP_NAME": "58-Gipps St\/Church St (Richmond)", "LATITUDE": -37.824058, "LONGITUDE": 144.998163, "TICKETZONE": "1", "ROUTEUSSP": "78" }, "geometry": { "type": "Point", "coordinates": [ 144.998163, -37.824058 ] } },
{ "type": "Feature", "properties": { "STOP_ID": "18599", "STOP_NAME": "57-Swan St\/Church St (Richmond)", "LATITUDE": -37.825782, "LONGITUDE": 144.997821, "TICKETZONE": "1", "ROUTEUSSP": "78" }, "geometry": { "type": "Point", "coordinates": [ 144.997821, -37.825782 ] } },
{ "type": "Feature", "properties": { "STOP_ID": "18601", "STOP_NAME": "55-Adelaide St\/Church St (Cremorne)", "LATITUDE": -37.828972, "LONGITUDE": 144.997269, "TICKETZONE": "1", "ROUTEUSSP": "78" }, "geometry": { "type": "Point", "coordinates": [ 144.997269, -37.828972 ] } },
{ "type": "Feature", "properties": { "STOP_ID": "18602", "STOP_NAME": "54-Balmain St\/Church St (Cremorne)", "LATITUDE": -37.830481, "LONGITUDE": 144.997001, "TICKETZONE": "1", "ROUTEUSSP": "78" }, "geometry": { "type": "Point", "coordinates": [ 144.997001, -37.830481 ] } },
{ "type": "Feature", "properties": { "STOP_ID": "18603", "STOP_NAME": "53-Howard St\/Church St (Richmond)", "LATITUDE": -37.832764, "LONGITUDE": 144.996632, "TICKETZONE": "1", "ROUTEUSSP": "78" }, "geometry": { "type": "Point", "coordinates": [ 144.996632, -37.832764 ] } },
{ "type": "Feature", "properties": { "STOP_ID": "18605", "STOP_NAME": "51-Malcolm St\/Chapel St (South Yarra)", "LATITUDE": -37.836379, "LONGITUDE": 144.996171, "TICKETZONE": "1", "ROUTEUSSP": "78" }, "geometry": { "type": "Point", "coordinates": [ 144.996171, -37.836379 ] } },
{ "type": "Feature", "properties": { "STOP_ID": "18606", "STOP_NAME": "50-Toorak Rd\/Chapel St (South Yarra)", "LATITUDE": -37.839648, "LONGITUDE": 144.995503, "TICKETZONE": "1", "ROUTEUSSP": "78" }, "geometry": { "type": "Point", "coordinates": [ 144.995503, -37.839648 ] } },
{ "type": "Feature", "properties": { "STOP_ID": "18607", "STOP_NAME": "49-Arthur St\/Chapel St (South Yarra)", "LATITUDE": -37.841974, "LONGITUDE": 144.995053, "TICKETZONE": "1", "ROUTEUSSP": "78" }, "geometry": { "type": "Point", "coordinates": [ 144.995053, -37.841974 ] } },
{ "type": "Feature", "properties": { "STOP_ID": "18608", "STOP_NAME": "48-Cliff St\/Chapel St (South Yarra)", "LATITUDE": -37.843833, "LONGITUDE": 144.994651, "TICKETZONE": "1", "ROUTEUSSP": "78" }, "geometry": { "type": "Point", "coordinates": [ 144.994651, -37.843833 ] } },
{ "type": "Feature", "properties": { "STOP_ID": "18609", "STOP_NAME": "47-Commercial Rd\/Chapel St (Prahran)", "LATITUDE": -37.846976, "LONGITUDE": 144.994032, "TICKETZONE": "1", "ROUTEUSSP": "78" }, "geometry": { "type": "Point", "coordinates": [ 144.994032, -37.846976 ] } },
{ "type": "Feature", "properties": { "STOP_ID": "18610", "STOP_NAME": "46-Chatham St\/Chapel St (Prahran)", "LATITUDE": -37.84908, "LONGITUDE": 144.993713, "TICKETZONE": "1", "ROUTEUSSP": "78" }, "geometry": { "type": "Point", "coordinates": [ 144.993713, -37.84908 ] } },
{ "type": "Feature", "properties": { "STOP_ID": "18611", "STOP_NAME": "45-High St\/Chapel St (Prahran)", "LATITUDE": -37.851956, "LONGITUDE": 144.993283, "TICKETZONE": "1", "ROUTEUSSP": "78" }, "geometry": { "type": "Point", "coordinates": [ 144.993283, -37.851956 ] } },
{ "type": "Feature", "properties": { "STOP_ID": "18612", "STOP_NAME": "44-Duke St\/Chapel St (Windsor)", "LATITUDE": -37.854102, "LONGITUDE": 144.992827, "TICKETZONE": "1", "ROUTEUSSP": "78" }, "geometry": { "type": "Point", "coordinates": [ 144.992827, -37.854102 ] } },
{ "type": "Feature", "properties": { "STOP_ID": "18613", "STOP_NAME": "43-Windsor Railway Station\/Chapel St (Windsor)", "LATITUDE": -37.85624, "LONGITUDE": 144.992451, "TICKETZONE": "1", "ROUTEUSSP": "78" }, "geometry": { "type": "Point", "coordinates": [ 144.992451, -37.85624 ] } },
{ "type": "Feature", "properties": { "STOP_ID": "18614", "STOP_NAME": "42-Dandenong Rd\/Chapel St (St Kilda East)", "LATITUDE": -37.858048, "LONGITUDE": 144.99222, "TICKETZONE": "1", "ROUTEUSSP": "78" }, "geometry": { "type": "Point", "coordinates": [ 144.99222, -37.858048 ] } },
{ "type": "Feature", "properties": { "STOP_ID": "18615", "STOP_NAME": "41-St Michaels Grammar School\/Chapel St (St Kilda)", "LATITUDE": -37.859529, "LONGITUDE": 144.991873, "TICKETZONE": "1", "ROUTEUSSP": "78" }, "geometry": { "type": "Point", "coordinates": [ 144.991873, -37.859529 ] } },
{ "type": "Feature", "properties": { "STOP_ID": "18616", "STOP_NAME": "40-Alma Rd\/Chapel St (St Kilda East)", "LATITUDE": -37.861577, "LONGITUDE": 144.99151, "TICKETZONE": "1", "ROUTEUSSP": "78" }, "geometry": { "type": "Point", "coordinates": [ 144.99151, -37.861577 ] } },
{ "type": "Feature", "properties": { "STOP_ID": "18617", "STOP_NAME": "39-Argyle St\/Chapel St (St Kilda East)", "LATITUDE": -37.863392, "LONGITUDE": 144.991188, "TICKETZONE": "1", "ROUTEUSSP": "78" }, "geometry": { "type": "Point", "coordinates": [ 144.991188, -37.863392 ] } },
{ "type": "Feature", "properties": { "STOP_ID": "18618", "STOP_NAME": "38-Inkerman St\/Chapel St (St Kilda East)", "LATITUDE": -37.865441, "LONGITUDE": 144.990826, "TICKETZONE": "1", "ROUTEUSSP": "78" }, "geometry": { "type": "Point", "coordinates": [ 144.990826, -37.865441 ] } },
{ "type": "Feature", "properties": { "STOP_ID": "18619", "STOP_NAME": "37-Chapel St\/Carlisle St (Balaclava)", "LATITUDE": -37.868445, "LONGITUDE": 144.990494, "TICKETZONE": "1", "ROUTEUSSP": "16,3\/3a" }, "geometry": { "type": "Point", "coordinates": [ 144.990494, -37.868445 ] } },
{ "type": "Feature", "properties": { "STOP_ID": "18620", "STOP_NAME": "36-St Kilda Town Hall\/Carlisle St (Balaclava)", "LATITUDE": -37.868226, "LONGITUDE": 144.98876, "TICKETZONE": "1", "ROUTEUSSP": "16,3\/3a" }, "geometry": { "type": "Point", "coordinates": [ 144.98876, -37.868226 ] } },
{ "type": "Feature", "properties": { "STOP_ID": "18621", "STOP_NAME": "37-Carlisle St\/Chapel St (St Kilda)", "LATITUDE": -37.868486, "LONGITUDE": 144.990265, "TICKETZONE": "1", "ROUTEUSSP": "78" }, "geometry": { "type": "Point", "coordinates": [ 144.990265, -37.868486 ] } },
{ "type": "Feature", "properties": { "STOP_ID": "18622", "STOP_NAME": "36-Brighton Rd\/Chapel St (St Kilda)", "LATITUDE": -37.871091, "LONGITUDE": 144.989774, "TICKETZONE": "1", "ROUTEUSSP": "78" }, "geometry": { "type": "Point", "coordinates": [ 144.989774, -37.871091 ] } },
{ "type": "Feature", "properties": { "STOP_ID": "18623", "STOP_NAME": "35-St Kilda Rd\/Carlisle St (St Kilda)", "LATITUDE": -37.867963, "LONGITUDE": 144.986574, "TICKETZONE": "1", "ROUTEUSSP": "16,3\/3a,67" }, "geometry": { "type": "Point", "coordinates": [ 144.986574, -37.867963 ] } },
{ "type": "Feature", "properties": { "STOP_ID": "18624", "STOP_NAME": "34-Greeves St\/Carlisle St (St Kilda)", "LATITUDE": -37.867594, "LONGITUDE": 144.983969, "TICKETZONE": "1", "ROUTEUSSP": "16,3\/3a" }, "geometry": { "type": "Point", "coordinates": [ 144.983969, -37.867594 ] } },
{ "type": "Feature", "properties": { "STOP_ID": "18625", "STOP_NAME": "33-Barkly St\/Carlisle St (St Kilda)", "LATITUDE": -37.867114, "LONGITUDE": 144.981163, "TICKETZONE": "1", "ROUTEUSSP": "16,3\/3a" }, "geometry": { "type": "Point", "coordinates": [ 144.981163, -37.867114 ] } },
{ "type": "Feature", "properties": { "STOP_ID": "18632", "STOP_NAME": "38-Balaclava Station\/Carlisle St (Balaclava)", "LATITUDE": -37.868818, "LONGITUDE": 144.993371, "TICKETZONE": "1", "ROUTEUSSP": "16,3\/3a" }, "geometry": { "type": "Point", "coordinates": [ 144.993371, -37.868818 ] } },
{ "type": "Feature", "properties": { "STOP_ID": "18633", "STOP_NAME": "39-Orange Gr\/Carlisle St (Balaclava)", "LATITUDE": -37.869245, "LONGITUDE": 144.996736, "TICKETZONE": "1", "ROUTEUSSP": "16,3\/3a" }, "geometry": { "type": "Point", "coordinates": [ 144.996736, -37.869245 ] } },
{ "type": "Feature", "properties": { "STOP_ID": "18634", "STOP_NAME": "40-Hotham St\/Carlisle St (Balaclava)", "LATITUDE": -37.86961, "LONGITUDE": 144.999625, "TICKETZONE": "1", "ROUTEUSSP": "16,3\/3a" }, "geometry": { "type": "Point", "coordinates": [ 144.999625, -37.86961 ] } },
{ "type": "Feature", "properties": { "STOP_ID": "18635", "STOP_NAME": "41-Empress Rd\/Balaclava Rd (Caulfield North)", "LATITUDE": -37.869984, "LONGITUDE": 145.002582, "TICKETZONE": "1", "ROUTEUSSP": "16,3\/3a" }, "geometry": { "type": "Point", "coordinates": [ 145.002582, -37.869984 ] } },
{ "type": "Feature", "properties": { "STOP_ID": "18636", "STOP_NAME": "42-Sidwell Ave\/Balaclava Rd (Caulfield North)", "LATITUDE": -37.870342, "LONGITUDE": 145.005585, "TICKETZONE": "1", "ROUTEUSSP": "16,3\/3a" }, "geometry": { "type": "Point", "coordinates": [ 145.005585, -37.870342 ] } },
{ "type": "Feature", "properties": { "STOP_ID": "18637", "STOP_NAME": "43-Orrong Rd\/Balaclava Rd (Caulfield North)", "LATITUDE": -37.870748, "LONGITUDE": 145.008791, "TICKETZONE": "1", "ROUTEUSSP": "16,3\/3a" }, "geometry": { "type": "Point", "coordinates": [ 145.008791, -37.870748 ] } },
{ "type": "Feature", "properties": { "STOP_ID": "18638", "STOP_NAME": "44-Ontario St\/Balaclava Rd (Caulfield North)", "LATITUDE": -37.871186, "LONGITUDE": 145.01236, "TICKETZONE": "1", "ROUTEUSSP": "16,3\/3a" }, "geometry": { "type": "Point", "coordinates": [ 145.01236, -37.871186 ] } },
{ "type": "Feature", "properties": { "STOP_ID": "18639", "STOP_NAME": "45-Kent Gr\/Balaclava Rd (Caulfield North)", "LATITUDE": -37.871548, "LONGITUDE": 145.015113, "TICKETZONE": "1", "ROUTEUSSP": "16,3\/3a" }, "geometry": { "type": "Point", "coordinates": [ 145.015113, -37.871548 ] } },
{ "type": "Feature", "properties": { "STOP_ID": "18640", "STOP_NAME": "46-Kooyong Rd\/Balaclava Rd (Caulfield North)", "LATITUDE": -37.871894, "LONGITUDE": 145.017957, "TICKETZONE": "1", "ROUTEUSSP": "16,3\/3a" }, "geometry": { "type": "Point", "coordinates": [ 145.017957, -37.871894 ] } },
{ "type": "Feature", "properties": { "STOP_ID": "18641", "STOP_NAME": "47-Elmhurst Rd\/Balaclava Rd (Caulfield North)", "LATITUDE": -37.872299, "LONGITUDE": 145.021175, "TICKETZONE": "1", "ROUTEUSSP": "16,3\/3a" }, "geometry": { "type": "Point", "coordinates": [ 145.021175, -37.872299 ] } },
{ "type": "Feature", "properties": { "STOP_ID": "18645", "STOP_NAME": "51-Hawthorn Rd\/Balaclava Rd (Caulfield North)", "LATITUDE": -37.87257, "LONGITUDE": 145.02443, "TICKETZONE": "1", "ROUTEUSSP": "16,3\/3a" }, "geometry": { "type": "Point", "coordinates": [ 145.02443, -37.87257 ] } },
{ "type": "Feature", "properties": { "STOP_ID": "18646", "STOP_NAME": "52-Caulfield Park Bowling Club\/Balaclava Rd (Caulfield North)", "LATITUDE": -37.873108, "LONGITUDE": 145.028543, "TICKETZONE": "1", "ROUTEUSSP": "3\/3a" }, "geometry": { "type": "Point", "coordinates": [ 145.028543, -37.873108 ] } },
{ "type": "Feature", "properties": { "STOP_ID": "18647", "STOP_NAME": "53-Caulfield Park\/Balaclava Rd (Caulfield North)", "LATITUDE": -37.873498, "LONGITUDE": 145.031932, "TICKETZONE": "1", "ROUTEUSSP": "3\/3a" }, "geometry": { "type": "Point", "coordinates": [ 145.031932, -37.873498 ] } },
{ "type": "Feature", "properties": { "STOP_ID": "18648", "STOP_NAME": "54-Kambrook Rd\/Balaclava Rd (Caulfield North)", "LATITUDE": -37.873987, "LONGITUDE": 145.035864, "TICKETZONE": "1", "ROUTEUSSP": "3\/3a" }, "geometry": { "type": "Point", "coordinates": [ 145.035864, -37.873987 ] } },
{ "type": "Feature", "properties": { "STOP_ID": "18649", "STOP_NAME": "55-Normanby Rd\/Balaclava Rd (Caulfield North)", "LATITUDE": -37.874199, "LONGITUDE": 145.037791, "TICKETZONE": "1", "ROUTEUSSP": "3\/3a" }, "geometry": { "type": "Point", "coordinates": [ 145.037791, -37.874199 ] } },
{ "type": "Feature", "properties": { "STOP_ID": "18650", "STOP_NAME": "56-Caulfield Racecourse\/Normanby Rd (Caulfield North)", "LATITUDE": -37.875488, "LONGITUDE": 145.039416, "TICKETZONE": "1", "ROUTEUSSP": "3\/3a" }, "geometry": { "type": "Point", "coordinates": [ 145.039416, -37.875488 ] } },
{ "type": "Feature", "properties": { "STOP_ID": "18651", "STOP_NAME": "57-Caulfield Railway Station\/Derby Rd (Caulfield East)", "LATITUDE": -37.876418, "LONGITUDE": 145.041654, "TICKETZONE": "1", "ROUTEUSSP": "3\/3a" }, "geometry": { "type": "Point", "coordinates": [ 145.041654, -37.876418 ] } },
{ "type": "Feature", "properties": { "STOP_ID": "18652", "STOP_NAME": "58-Dandenong Rd\/Derby Rd (Caulfield North)", "LATITUDE": -37.875709, "LONGITUDE": 145.041866, "TICKETZONE": "1", "ROUTEUSSP": "3\/3a" }, "geometry": { "type": "Point", "coordinates": [ 145.041866, -37.875709 ] } },
{ "type": "Feature", "properties": { "STOP_ID": "18653", "STOP_NAME": "59-Dandenong Rd\/Waverley Rd (Malvern East)", "LATITUDE": -37.87576, "LONGITUDE": 145.044946, "TICKETZONE": "1", "ROUTEUSSP": "3\/3a" }, "geometry": { "type": "Point", "coordinates": [ 145.044946, -37.87576 ] } },
{ "type": "Feature", "properties": { "STOP_ID": "18654", "STOP_NAME": "60-Burke Rd\/Waverley Rd (Malvern East)", "LATITUDE": -37.875893, "LONGITUDE": 145.048046, "TICKETZONE": "1", "ROUTEUSSP": "3\/3a" }, "geometry": { "type": "Point", "coordinates": [ 145.048046, -37.875893 ] } },
{ "type": "Feature", "properties": { "STOP_ID": "18655", "STOP_NAME": "61-Tennyson St\/Waverley Rd (Malvern East)", "LATITUDE": -37.876247, "LONGITUDE": 145.050936, "TICKETZONE": "1", "ROUTEUSSP": "3\/3a" }, "geometry": { "type": "Point", "coordinates": [ 145.050936, -37.876247 ] } },
{ "type": "Feature", "properties": { "STOP_ID": "18656", "STOP_NAME": "62-The Avenue\/Waverley Rd (Malvern East)", "LATITUDE": -37.876697, "LONGITUDE": 145.054687, "TICKETZONE": "1", "ROUTEUSSP": "3\/3a" }, "geometry": { "type": "Point", "coordinates": [ 145.054687, -37.876697 ] } },
{ "type": "Feature", "properties": { "STOP_ID": "18657", "STOP_NAME": "63-Oak Gr\/Waverley Rd (Malvern East)", "LATITUDE": -37.876917, "LONGITUDE": 145.056546, "TICKETZONE": "1", "ROUTEUSSP": "3\/3a" }, "geometry": { "type": "Point", "coordinates": [ 145.056546, -37.876917 ] } },
{ "type": "Feature", "properties": { "STOP_ID": "18658", "STOP_NAME": "27-Park St\/Montague St (South Melbourne)", "LATITUDE": -37.837522, "LONGITUDE": 144.954176, "TICKETZONE": "1", "ROUTEUSSP": "1" }, "geometry": { "type": "Point", "coordinates": [ 144.954176, -37.837522 ] } },
{ "type": "Feature", "properties": { "STOP_ID": "18659", "STOP_NAME": "28-Montague St\/Bridport St (Albert Park)", "LATITUDE": -37.840732, "LONGITUDE": 144.955315, "TICKETZONE": "1", "ROUTEUSSP": "1" }, "geometry": { "type": "Point", "coordinates": [ 144.955315, -37.840732 ] } },
{ "type": "Feature", "properties": { "STOP_ID": "18660", "STOP_NAME": "29-Bridport St\/Victoria Ave (Albert Park)", "LATITUDE": -37.841563, "LONGITUDE": 144.953337, "TICKETZONE": "1", "ROUTEUSSP": "1" }, "geometry": { "type": "Point", "coordinates": [ 144.953337, -37.841563 ] } },
{ "type": "Feature", "properties": { "STOP_ID": "18661", "STOP_NAME": "30-Richardson St\/Victoria Ave (Albert Park)", "LATITUDE": -37.843942, "LONGITUDE": 144.951283, "TICKETZONE": "1", "ROUTEUSSP": "1" }, "geometry": { "type": "Point", "coordinates": [ 144.951283, -37.843942 ] } },
{ "type": "Feature", "properties": { "STOP_ID": "18662", "STOP_NAME": "31-Graham St\/Victoria Ave (Albert Park)", "LATITUDE": -37.845674, "LONGITUDE": 144.949826, "TICKETZONE": "1", "ROUTEUSSP": "1" }, "geometry": { "type": "Point", "coordinates": [ 144.949826, -37.845674 ] } },
{ "type": "Feature", "properties": { "STOP_ID": "18663", "STOP_NAME": "32-Beaconsfield Pde\/Victoria Ave (Albert Park)", "LATITUDE": -37.847204, "LONGITUDE": 144.948658, "TICKETZONE": "1", "ROUTEUSSP": "1" }, "geometry": { "type": "Point", "coordinates": [ 144.948658, -37.847204 ] } },
{ "type": "Feature", "properties": { "STOP_ID": "18699", "STOP_NAME": "124-Walsh St\/Toorak Rd (South Yarra)", "LATITUDE": -37.838152, "LONGITUDE": 144.984453, "TICKETZONE": "1", "ROUTEUSSP": "58" }, "geometry": { "type": "Point", "coordinates": [ 144.984453, -37.838152 ] } },
{ "type": "Feature", "properties": { "STOP_ID": "18700", "STOP_NAME": "125-Punt Rd\/Toorak Rd (South Yarra)", "LATITUDE": -37.838408, "LONGITUDE": 144.986753, "TICKETZONE": "1", "ROUTEUSSP": "58" }, "geometry": { "type": "Point", "coordinates": [ 144.986753, -37.838408 ] } },
{ "type": "Feature", "properties": { "STOP_ID": "18702", "STOP_NAME": "126-Myrtle St\/Toorak Rd (South Yarra)", "LATITUDE": -37.838788, "LONGITUDE": 144.989504, "TICKETZONE": "1", "ROUTEUSSP": "58" }, "geometry": { "type": "Point", "coordinates": [ 144.989504, -37.838788 ] } },
{ "type": "Feature", "properties": { "STOP_ID": "18703", "STOP_NAME": "127-South Yarra Railway Station\/Toorak Rd (South Yarra)", "LATITUDE": -37.839131, "LONGITUDE": 144.992165, "TICKETZONE": "1", "ROUTEUSSP": "58" }, "geometry": { "type": "Point", "coordinates": [ 144.992165, -37.839131 ] } },
{ "type": "Feature", "properties": { "STOP_ID": "18704", "STOP_NAME": "128-Chapel St\/Toorak Rd (South Yarra)", "LATITUDE": -37.839581, "LONGITUDE": 144.995823, "TICKETZONE": "1", "ROUTEUSSP": "58" }, "geometry": { "type": "Point", "coordinates": [ 144.995823, -37.839581 ] } },
{ "type": "Feature", "properties": { "STOP_ID": "18705", "STOP_NAME": "129-Tivoli Rd\/Toorak Rd (South Yarra)", "LATITUDE": -37.839927, "LONGITUDE": 144.998666, "TICKETZONE": "1", "ROUTEUSSP": "58" }, "geometry": { "type": "Point", "coordinates": [ 144.998666, -37.839927 ] } },
{ "type": "Feature", "properties": { "STOP_ID": "18706", "STOP_NAME": "130-Hawksburn Rd\/Toorak Rd (South Yarra)", "LATITUDE": -37.840368, "LONGITUDE": 145.002336, "TICKETZONE": "1", "ROUTEUSSP": "58" }, "geometry": { "type": "Point", "coordinates": [ 145.002336, -37.840368 ] } },
{ "type": "Feature", "properties": { "STOP_ID": "18707", "STOP_NAME": "131-Williams Rd\/Toorak Rd (Toorak)", "LATITUDE": -37.840725, "LONGITUDE": 145.00536, "TICKETZONE": "1", "ROUTEUSSP": "58" }, "geometry": { "type": "Point", "coordinates": [ 145.00536, -37.840725 ] } },
{ "type": "Feature", "properties": { "STOP_ID": "18708", "STOP_NAME": "132-Toorak Village\/Toorak Rd (Toorak)", "LATITUDE": -37.841093, "LONGITUDE": 145.008452, "TICKETZONE": "1", "ROUTEUSSP": "58" }, "geometry": { "type": "Point", "coordinates": [ 145.008452, -37.841093 ] } },
{ "type": "Feature", "properties": { "STOP_ID": "18709", "STOP_NAME": "133-Canterbury Rd\/Toorak Rd (Toorak)", "LATITUDE": -37.841387, "LONGITUDE": 145.010888, "TICKETZONE": "1", "ROUTEUSSP": "58" }, "geometry": { "type": "Point", "coordinates": [ 145.010888, -37.841387 ] } },
{ "type": "Feature", "properties": { "STOP_ID": "18710", "STOP_NAME": "43-Deepdene Shopping Centre\/Whitehorse Rd (Balwyn)", "LATITUDE": -37.810925, "LONGITUDE": 145.064877, "TICKETZONE": "1", "ROUTEUSSP": "109" }, "geometry": { "type": "Point", "coordinates": [ 145.064877, -37.810925 ] } },
{ "type": "Feature", "properties": { "STOP_ID": "18711", "STOP_NAME": "119-Park St\/Lygon St (Carlton North)", "LATITUDE": -37.779417, "LONGITUDE": 144.970471, "TICKETZONE": "1", "ROUTEUSSP": "1,6" }, "geometry": { "type": "Point", "coordinates": [ 144.970471, -37.779417 ] } },
{ "type": "Feature", "properties": { "STOP_ID": "18712", "STOP_NAME": "120-Brunswick Rd\/Lygon St (Brunswick)", "LATITUDE": -37.778455, "LONGITUDE": 144.970634, "TICKETZONE": "1", "ROUTEUSSP": "1,6" }, "geometry": { "type": "Point", "coordinates": [ 144.970634, -37.778455 ] } },
{ "type": "Feature", "properties": { "STOP_ID": "18713", "STOP_NAME": "121-Weston St\/Lygon St (Brunswick East)", "LATITUDE": -37.775667, "LONGITUDE": 144.970971, "TICKETZONE": "1", "ROUTEUSSP": "1,6" }, "geometry": { "type": "Point", "coordinates": [ 144.970971, -37.775667 ] } },
{ "type": "Feature", "properties": { "STOP_ID": "18714", "STOP_NAME": "122-Glenlyon Rd\/Lygon St (Brunswick East)", "LATITUDE": -37.772737, "LONGITUDE": 144.971415, "TICKETZONE": "1", "ROUTEUSSP": "1,6" }, "geometry": { "type": "Point", "coordinates": [ 144.971415, -37.772737 ] } },
{ "type": "Feature", "properties": { "STOP_ID": "18715", "STOP_NAME": "123-Albert St\/Lygon St (Brunswick East)", "LATITUDE": -37.769781, "LONGITUDE": 144.97195, "TICKETZONE": "1", "ROUTEUSSP": "1,6" }, "geometry": { "type": "Point", "coordinates": [ 144.97195, -37.769781 ] } },
{ "type": "Feature", "properties": { "STOP_ID": "18716", "STOP_NAME": "124-Victoria St\/Lygon St (Brunswick East)", "LATITUDE": -37.7682, "LONGITUDE": 144.972231, "TICKETZONE": "1", "ROUTEUSSP": "1,6" }, "geometry": { "type": "Point", "coordinates": [ 144.972231, -37.7682 ] } },
{ "type": "Feature", "properties": { "STOP_ID": "18717", "STOP_NAME": "125-Blyth St\/Lygon St (Brunswick East)", "LATITUDE": -37.766664, "LONGITUDE": 144.972512, "TICKETZONE": "1", "ROUTEUSSP": "1,6" }, "geometry": { "type": "Point", "coordinates": [ 144.972512, -37.766664 ] } },
{ "type": "Feature", "properties": { "STOP_ID": "10311", "STOP_NAME": "45-Glenferrie Rd\/Wattletree Rd (Malvern)", "LATITUDE": -37.862297, "LONGITUDE": 145.028194, "TICKETZONE": "1", "ROUTEUSSP": "5" }, "geometry": { "type": "Point", "coordinates": [ 145.028194, -37.862297 ] } },
{ "type": "Feature", "properties": { "STOP_ID": "10371", "STOP_NAME": "44-Duncraig Ave\/Wattletree Rd (Armadale)", "LATITUDE": -37.861893, "LONGITUDE": 145.025091, "TICKETZONE": "1", "ROUTEUSSP": "5" }, "geometry": { "type": "Point", "coordinates": [ 145.025091, -37.861893 ] } },
{ "type": "Feature", "properties": { "STOP_ID": "1083", "STOP_NAME": "42-Clyde St\/Raleigh Rd (Maribyrnong)", "LATITUDE": -37.769699, "LONGITUDE": 144.898841, "TICKETZONE": "1", "ROUTEUSSP": "57,82" }, "geometry": { "type": "Point", "coordinates": [ 144.898841, -37.769699 ] } },
{ "type": "Feature", "properties": { "STOP_ID": "11285", "STOP_NAME": "43-Egerton Rd\/Wattletree Rd (Armadale)", "LATITUDE": -37.861592, "LONGITUDE": 145.0227, "TICKETZONE": "1", "ROUTEUSSP": "5" }, "geometry": { "type": "Point", "coordinates": [ 145.0227, -37.861592 ] } },
{ "type": "Feature", "properties": { "STOP_ID": "1185", "STOP_NAME": "50-Vincent St\/Wattletree Rd (Malvern East)", "LATITUDE": -37.864385, "LONGITUDE": 145.043712, "TICKETZONE": "1", "ROUTEUSSP": "5" }, "geometry": { "type": "Point", "coordinates": [ 145.043712, -37.864385 ] } },
{ "type": "Feature", "properties": { "STOP_ID": "12599", "STOP_NAME": "42-Kooyong Rd\/Wattletree Rd (Armadale)", "LATITUDE": -37.861189, "LONGITUDE": 145.019619, "TICKETZONE": "1", "ROUTEUSSP": "5" }, "geometry": { "type": "Point", "coordinates": [ 145.019619, -37.861189 ] } },
{ "type": "Feature", "properties": { "STOP_ID": "1291", "STOP_NAME": "51-Erica Ave\/Wattletree Rd (Malvern East)", "LATITUDE": -37.864782, "LONGITUDE": 145.046998, "TICKETZONE": "1", "ROUTEUSSP": "5" }, "geometry": { "type": "Point", "coordinates": [ 145.046998, -37.864782 ] } },
{ "type": "Feature", "properties": { "STOP_ID": "1292", "STOP_NAME": "38-Renown St\/Sydney Rd (Coburg)", "LATITUDE": -37.731619, "LONGITUDE": 144.964266, "TICKETZONE": "1", "ROUTEUSSP": "19" }, "geometry": { "type": "Point", "coordinates": [ 144.964266, -37.731619 ] } },
{ "type": "Feature", "properties": { "STOP_ID": "13401", "STOP_NAME": "28-Punt Rd\/High St (Prahran)", "LATITUDE": -37.850564, "LONGITUDE": 144.984047, "TICKETZONE": "1", "ROUTEUSSP": "6" }, "geometry": { "type": "Point", "coordinates": [ 144.984047, -37.850564 ] } },
{ "type": "Feature", "properties": { "STOP_ID": "13995", "STOP_NAME": "44-Barb St\/Raleigh Rd (Maribyrnong)", "LATITUDE": -37.768891, "LONGITUDE": 144.891985, "TICKETZONE": "1", "ROUTEUSSP": "57,82" }, "geometry": { "type": "Point", "coordinates": [ 144.891985, -37.768891 ] } },
{ "type": "Feature", "properties": { "STOP_ID": "14033", "STOP_NAME": "29-Perth St\/High St (Prahran)", "LATITUDE": -37.85105, "LONGITUDE": 144.987727, "TICKETZONE": "1", "ROUTEUSSP": "6" }, "geometry": { "type": "Point", "coordinates": [ 144.987727, -37.85105 ] } },
{ "type": "Feature", "properties": { "STOP_ID": "14614", "STOP_NAME": "30-Prahran Station\/High St (Prahran)", "LATITUDE": -37.851319, "LONGITUDE": 144.989731, "TICKETZONE": "1", "ROUTEUSSP": "6" }, "geometry": { "type": "Point", "coordinates": [ 144.989731, -37.851319 ] } },
{ "type": "Feature", "properties": { "STOP_ID": "14728", "STOP_NAME": "31-Chapel St\/High St (Prahran)", "LATITUDE": -37.851756, "LONGITUDE": 144.993209, "TICKETZONE": "1", "ROUTEUSSP": "6" }, "geometry": { "type": "Point", "coordinates": [ 144.993209, -37.851756 ] } },
{ "type": "Feature", "properties": { "STOP_ID": "15559", "STOP_NAME": "45-Randall St\/Raleigh Rd (Maribyrnong)", "LATITUDE": -37.768629, "LONGITUDE": 144.888938, "TICKETZONE": "1", "ROUTEUSSP": "57,82" }, "geometry": { "type": "Point", "coordinates": [ 144.888938, -37.768629 ] } },
{ "type": "Feature", "properties": { "STOP_ID": "15699", "STOP_NAME": "32-Hornby St\/High St (Prahran)", "LATITUDE": -37.852199, "LONGITUDE": 144.996436, "TICKETZONE": "1", "ROUTEUSSP": "6" }, "geometry": { "type": "Point", "coordinates": [ 144.996436, -37.852199 ] } },
{ "type": "Feature", "properties": { "STOP_ID": "1575", "STOP_NAME": "52-Burke Rd\/Wattletree Rd (Malvern East)", "LATITUDE": -37.865076, "LONGITUDE": 145.050071, "TICKETZONE": "1", "ROUTEUSSP": "5" }, "geometry": { "type": "Point", "coordinates": [ 145.050071, -37.865076 ] } },
{ "type": "Feature", "properties": { "STOP_ID": "16610", "STOP_NAME": "33-The Avenue\/High St (Prahran)", "LATITUDE": -37.852434, "LONGITUDE": 144.998089, "TICKETZONE": "1", "ROUTEUSSP": "6" }, "geometry": { "type": "Point", "coordinates": [ 144.998089, -37.852434 ] } },
{ "type": "Feature", "properties": { "STOP_ID": "16713", "STOP_NAME": "34-Bell St\/Sydney Rd (Coburg)", "LATITUDE": -37.741471, "LONGITUDE": 144.96647, "TICKETZONE": "1", "ROUTEUSSP": "19" }, "geometry": { "type": "Point", "coordinates": [ 144.96647, -37.741471 ] } },
{ "type": "Feature", "properties": { "STOP_ID": "16714", "STOP_NAME": "33-Coburg Market\/Sydney Rd (Coburg)", "LATITUDE": -37.743259, "LONGITUDE": 144.966148, "TICKETZONE": "1", "ROUTEUSSP": "19" }, "geometry": { "type": "Point", "coordinates": [ 144.966148, -37.743259 ] } },
{ "type": "Feature", "properties": { "STOP_ID": "16715", "STOP_NAME": "32-Munro St\/Sydney Rd (Coburg)", "LATITUDE": -37.745065, "LONGITUDE": 144.965838, "TICKETZONE": "1", "ROUTEUSSP": "19" }, "geometry": { "type": "Point", "coordinates": [ 144.965838, -37.745065 ] } },
{ "type": "Feature", "properties": { "STOP_ID": "16716", "STOP_NAME": "31-Reynard St\/Sydney Rd (Coburg)", "LATITUDE": -37.74874, "LONGITUDE": 144.965204, "TICKETZONE": "1", "ROUTEUSSP": "19" }, "geometry": { "type": "Point", "coordinates": [ 144.965204, -37.74874 ] } },
{ "type": "Feature", "properties": { "STOP_ID": "16717", "STOP_NAME": "30-The Avenue\/Sydney Rd (Coburg)", "LATITUDE": -37.752073, "LONGITUDE": 144.964636, "TICKETZONE": "1", "ROUTEUSSP": "19" }, "geometry": { "type": "Point", "coordinates": [ 144.964636, -37.752073 ] } },
{ "type": "Feature", "properties": { "STOP_ID": "16718", "STOP_NAME": "34-Lewisham Rd\/High St (Prahran)", "LATITUDE": -37.852651, "LONGITUDE": 144.999685, "TICKETZONE": "1", "ROUTEUSSP": "6" }, "geometry": { "type": "Point", "coordinates": [ 144.999685, -37.852651 ] } },
{ "type": "Feature", "properties": { "STOP_ID": "16719", "STOP_NAME": "28-Moreland Rd\/Sydney Rd (Brunswick)", "LATITUDE": -37.75564, "LONGITUDE": 144.964016, "TICKETZONE": "1", "ROUTEUSSP": "19" }, "geometry": { "type": "Point", "coordinates": [ 144.964016, -37.75564 ] } },
{ "type": "Feature", "properties": { "STOP_ID": "16720", "STOP_NAME": "27-Brunswick Tram Depot\/Sydney Rd (Brunswick)", "LATITUDE": -37.757815, "LONGITUDE": 144.963639, "TICKETZONE": "1", "ROUTEUSSP": "19" }, "geometry": { "type": "Point", "coordinates": [ 144.963639, -37.757815 ] } },
{ "type": "Feature", "properties": { "STOP_ID": "16721", "STOP_NAME": "26-Albion St\/Sydney Rd (Brunswick)", "LATITUDE": -37.760959, "LONGITUDE": 144.963087, "TICKETZONE": "1", "ROUTEUSSP": "19" }, "geometry": { "type": "Point", "coordinates": [ 144.963087, -37.760959 ] } },
{ "type": "Feature", "properties": { "STOP_ID": "16722", "STOP_NAME": "25-Stewart St\/Sydney Rd (Brunswick)", "LATITUDE": -37.763232, "LONGITUDE": 144.962695, "TICKETZONE": "1", "ROUTEUSSP": "19" }, "geometry": { "type": "Point", "coordinates": [ 144.962695, -37.763232 ] } },
{ "type": "Feature", "properties": { "STOP_ID": "16723", "STOP_NAME": "24-Brunswick Baptist Church\/Sydney Rd (Brunswick)", "LATITUDE": -37.765578, "LONGITUDE": 144.962302, "TICKETZONE": "1", "ROUTEUSSP": "19" }, "geometry": { "type": "Point", "coordinates": [ 144.962302, -37.765578 ] } },
{ "type": "Feature", "properties": { "STOP_ID": "16724", "STOP_NAME": "23-Victoria St\/Sydney Rd (Brunswick)", "LATITUDE": -37.767141, "LONGITUDE": 144.962032, "TICKETZONE": "1", "ROUTEUSSP": "19" }, "geometry": { "type": "Point", "coordinates": [ 144.962032, -37.767141 ] } },
{ "type": "Feature", "properties": { "STOP_ID": "16725", "STOP_NAME": "22-Albert St\/Sydney Rd (Brunswick)", "LATITUDE": -37.768947, "LONGITUDE": 144.961721, "TICKETZONE": "1", "ROUTEUSSP": "19" }, "geometry": { "type": "Point", "coordinates": [ 144.961721, -37.768947 ] } },
{ "type": "Feature", "properties": { "STOP_ID": "16726", "STOP_NAME": "21-Brunswick Town Hall\/Sydney Rd (Brunswick)", "LATITUDE": -37.771643, "LONGITUDE": 144.961261, "TICKETZONE": "1", "ROUTEUSSP": "19" }, "geometry": { "type": "Point", "coordinates": [ 144.961261, -37.771643 ] } },
{ "type": "Feature", "properties": { "STOP_ID": "16727", "STOP_NAME": "20-Barkly Square\/115 Sydney Rd (Brunswick)", "LATITUDE": -37.774842, "LONGITUDE": 144.960742, "TICKETZONE": "1", "ROUTEUSSP": "19" }, "geometry": { "type": "Point", "coordinates": [ 144.960742, -37.774842 ] } },
{ "type": "Feature", "properties": { "STOP_ID": "16728", "STOP_NAME": "19-Brunswick Rd\/Sydney Rd (Brunswick)", "LATITUDE": -37.777295, "LONGITUDE": 144.960334, "TICKETZONE": "1", "ROUTEUSSP": "19" }, "geometry": { "type": "Point", "coordinates": [ 144.960334, -37.777295 ] } },
{ "type": "Feature", "properties": { "STOP_ID": "16729", "STOP_NAME": "18-Princes Park\/Royal Pde (Parkville)", "LATITUDE": -37.779379, "LONGITUDE": 144.959936, "TICKETZONE": "1", "ROUTEUSSP": "19" }, "geometry": { "type": "Point", "coordinates": [ 144.959936, -37.779379 ] } },
{ "type": "Feature", "properties": { "STOP_ID": "16730", "STOP_NAME": "17-Ievers St\/Royal Pde (Parkville)", "LATITUDE": -37.781888, "LONGITUDE": 144.95964, "TICKETZONE": "1", "ROUTEUSSP": "19" }, "geometry": { "type": "Point", "coordinates": [ 144.95964, -37.781888 ] } },
{ "type": "Feature", "properties": { "STOP_ID": "16731", "STOP_NAME": "16-Visy Park\/Royal Pde (Parkville)", "LATITUDE": -37.784856, "LONGITUDE": 144.959274, "TICKETZONE": "1", "ROUTEUSSP": "19" }, "geometry": { "type": "Point", "coordinates": [ 144.959274, -37.784856 ] } },
{ "type": "Feature", "properties": { "STOP_ID": "16732", "STOP_NAME": "15-Leonard St\/Royal Pde (Parkville)", "LATITUDE": -37.787931, "LONGITUDE": 144.958894, "TICKETZONE": "1", "ROUTEUSSP": "19" }, "geometry": { "type": "Point", "coordinates": [ 144.958894, -37.787931 ] } },
{ "type": "Feature", "properties": { "STOP_ID": "16733", "STOP_NAME": "14-Macarthur Rd\/Royal Pde (Parkville)", "LATITUDE": -37.790017, "LONGITUDE": 144.95861, "TICKETZONE": "1", "ROUTEUSSP": "19" }, "geometry": { "type": "Point", "coordinates": [ 144.95861, -37.790017 ] } },
{ "type": "Feature", "properties": { "STOP_ID": "16734", "STOP_NAME": "13-Gatehouse St\/Royal Pde (Parkville)", "LATITUDE": -37.792679, "LONGITUDE": 144.95831, "TICKETZONE": "1", "ROUTEUSSP": "19" }, "geometry": { "type": "Point", "coordinates": [ 144.95831, -37.792679 ] } },
{ "type": "Feature", "properties": { "STOP_ID": "16735", "STOP_NAME": "12-Morrah St\/Royal Pde (Parkville)", "LATITUDE": -37.795656, "LONGITUDE": 144.957944, "TICKETZONE": "1", "ROUTEUSSP": "19" }, "geometry": { "type": "Point", "coordinates": [ 144.957944, -37.795656 ] } },
{ "type": "Feature", "properties": { "STOP_ID": "16736", "STOP_NAME": "11-University of Melbourne\/Royal Pde (Parkville)", "LATITUDE": -37.798273, "LONGITUDE": 144.957656, "TICKETZONE": "1", "ROUTEUSSP": "19" }, "geometry": { "type": "Point", "coordinates": [ 144.957656, -37.798273 ] } },